PrimaryKey;Id;Name;Latitude;Longitude;Altitude;Roll;Pitch;Yaw;RxTxType;AntennaType;CenterFrequency_Hz;Bandwith_Hz;Gain_dB;SignalToNoiseRatio_dB;XPos;YPos;ZPos;StartTime;Remark
91988fd4-250d-4e50-b847-4c48fe6a8141;-66;RFDevice #1;49,7538871429058;6,65725240795759;0;0;0;0;Unknown;Unknown;98;24;0;0;0;0;0;0;Falsches Üben von Xylophonmusik quält jeden größeren Zwerg.
a9012a3c-2611-4c2e-893d-845b90e69683;977;RFDevice #2;49,7706019471141;6,61717774467891;0;0;0;0;TwinRx;OmniDirectional;98;11;0;0;0;0;0;0;Vom Ödipuskomplex maßlos gequält, übt Wilfried zyklisches Jodeln.
c704ffae-0581-45ce-9f10-c40d83211471;-547;RFDevice #3;49,7468137025231;6,62362572551422;0;0;0;0;HackRF;OmniDirectional;86;28;0;0;0;0;0;0;Falsches Üben von Xylophonmusik quält jeden größeren Zwerg.
ce0ca259-ff35-49d5-9841-1843c498783c;-528;RFDevice #4;49,7699096295255;6,65386467827212;0;0;0;0;TwinRx;Unknown;87;47;0;0;0;0;0;0;Franz jagt im komplett verwahrlosten Taxi quer durch Bayern.
c5b8f623-8046-479d-a3ec-c67cf1666729;931;RFDevice #5;49,7492524635154;6,63497003748793;0;0;0;0;HackRF;OmniDirectional;92;30;0;0;0;0;0;0;Falsches Üben von Xylophonmusik quält jeden größeren Zwerg.
c701cdd6-4f95-45b2-8ec2-eace3c4fddf3;-545;RFDevice #6;49,7824546151824;6,66444313894247;0;0;0;0;Unknown;OmniDirectional;88;32;0;0;0;0;0;0;Falsches Üben von Xylophonmusik quält jeden größeren Zwerg.
bd712f95-adc7-4367-bada-64f419e92f03;813;RFDevice #8;49,7455238160534;6,65205588310135;0;0;0;0;IdealSDR;Unknown;95;31;0;0;0;0;0;0;Falsches Üben von Xylophonmusik quält jeden größeren Zwerg.
4326629c-8a73-4f54-8923-403723733e46;931;RFDevice #9;49,7944962733278;6,64404904655383;0;0;0;0;IdealSDR;OmniDirectional;96;41;0;0;0;0;0;0;Falsches Üben von Xylophonmusik quält jeden größeren Zwerg.
f1a53d24-4741-428c-bfb5-0d711057982d;470;RFDevice #10;49,7569721459554;6,62503558481826;0;0;0;0;HackRF;OmniDirectional;92;40;0;0;0;0;0;0;Franz jagt im komplett verwahrlosten Taxi quer durch Bayern.
ba83115c-6c19-49b6-aafd-81018b7b1600;-669;RFDevice #1;49,7854157588953;6,65456431475229;0;0;0;0;TwinRx;Unknown;97;65;0;0;0;0;0;0;Falsches Üben von Xylophonmusik quält jeden größeren Zwerg.
5e9e4305-41f3-4475-8d0b-f5e9c8979fa5;-754;RFDevice #2;49,7462836670317;6,64204016136114;0;0;0;0;IdealSDR;Unknown;90;12;0;0;0;0;0;0;Vom Ödipuskomplex maßlos gequält, übt Wilfried zyklisches Jodeln.
3212ee12-ece8-4fd5-9aa8-7db3a997c6b7;-134;RFDevice #3;49,752417709225;6,66136911329891;0;0;0;0;HackRF;Unknown;91;61;0;0;0;0;0;0;The quick brown fox jumps over a lazy dog.
2c4c8744-68a0-4c3f-a08a-e2dc0b11444a;-283;RFDevice #4;49,7668357206232;6,6233276698569;0;0;0;0;IdealSDR;Unknown;95;30;0;0;0;0;0;0;Vom Ödipuskomplex maßlos gequält, übt Wilfried zyklisches Jodeln.
fc5d7775-e4d8-4506-8158-9f1f9f9166a9;123;RFDevice #5;49,779098900502;6,65863429391707;0;0;0;0;IdealSDR;Unknown;96;10;0;0;0;0;0;0;The quick brown fox jumps over a lazy dog.
680ac11b-0153-4c61-9ac1-0a3ad7a9c5ba;-634;RFDevice #6;49,7815006472195;6,65978619516831;0;0;0;0;IdealSDR;OmniDirectional;89;27;0;0;0;0;0;0;The quick brown fox jumps over a lazy dog.
adcba2ac-528f-41b2-b2da-cc3087727923;-612;RFDevice #7;49,7699516689609;6,66356188773823;0;0;0;0;Unknown;OmniDirectional;85;43;0;0;0;0;0;0;Falsches Üben von Xylophonmusik quält jeden größeren Zwerg.
bb0132e8-c19b-454f-ab85-1cd8e88259fe;-858;RFDevice #8;49,7687537955551;6,63346931732901;0;0;0;0;HackRF;OmniDirectional;100;77;0;0;0;0;0;0;Vom Ödipuskomplex maßlos gequält, übt Wilfried zyklisches Jodeln.
4bff08a7-ce8e-4591-a98d-c4fc6a1e3a63;453;RFDevice #9;49,7455872043825;6,64896943268332;0;0;0;0;Unknown;OmniDirectional;103;79;0;0;0;0;0;0;Falsches Üben von Xylophonmusik quält jeden größeren Zwerg.
c89355da-201c-4357-8275-910320eed13e;-739;RFDevice #10;49,7752813147144;6,62682638669718;0;0;0;0;Unknown;OmniDirectional;94;30;0;0;0;0;0;0;Franz jagt im komplett verwahrlosten Taxi quer durch Bayern.
76de5629-132f-4c28-aec4-7aae7bf1ba61;-650;RFDevice #11;49,7796947206852;6,65685911702325;0;0;0;0;HackRF;Unknown;91;17;0;0;0;0;0;0;Vom Ödipuskomplex maßlos gequält, übt Wilfried zyklisches Jodeln.
4ba90314-9c95-4467-a096-4e88aff1cf65;-623;RFDevice #12;49,7460171436285;6,61662048329921;0;0;0;0;HackRF;OmniDirectional;96;70;0;0;0;0;0;0;The quick brown fox jumps over a lazy dog.
3ae702a6-b042-4cf8-a44d-481c239f08f4;526;RFDevice #13;49,7614552154603;6,6401742245911;0;0;0;0;IdealSDR;Unknown;91;17;0;0;0;0;0;0;The quick brown fox jumps over a lazy dog.
95e09a9c-4a30-4829-bb5f-26e4108cb330;3;RFDevice #14;49,7512728232774;6,65597866861908;0;0;0;0;Unknown;Unknown;97;41;0;0;0;0;0;0;Vom Ödipuskomplex maßlos gequält, übt Wilfried zyklisches Jodeln.
0ad71ca7-6004-4075-88ac-9560694f46f4;-657;RFDevice #15;49,7560899131139;6,62674406313665;0;0;0;0;Unknown;Unknown;95;10;0;0;0;0;0;0;The quick brown fox jumps over a lazy dog.
eb8272af-06d6-4977-a4e4-ef539865fa6f;805;RFDevice #16;49,7523546182207;6,65252589981203;0;0;0;0;HackRF;Unknown;99;55;0;0;0;0;0;0;Vom Ödipuskomplex maßlos gequält, übt Wilfried zyklisches Jodeln.
db5363ac-e80c-4f3e-bea6-79cd9b558a21;463;RFDevice #17;49,7864331324865;6,61983633263043;0;0;0;0;IdealSDR;Unknown;90;54;0;0;0;0;0;0;Falsches Üben von Xylophonmusik quält jeden größeren Zwerg.
b2318563-2c59-466c-9e0e-604a16f7e529;162;RFDevice #18;49,7742273076661;6,66035926076614;0;0;0;0;HackRF;Unknown;90;63;0;0;0;0;0;0;Vom Ödipuskomplex maßlos gequält, übt Wilfried zyklisches Jodeln.
035a129f-e419-4ff7-a84f-3c623ea9bb57;111;RFDevice #19;49,7684128939138;6,61907983285346;0;0;0;0;Unknown;OmniDirectional;86;44;0;0;0;0;0;0;Franz jagt im komplett verwahrlosten Taxi quer durch Bayern.
548c2f59-83af-4adb-8e5b-9cd775d2ae1e;-364;RFDevice #20;49,7512732360163;6,62111496197126;0;0;0;0;HackRF;Unknown;99;35;0;0;0;0;0;0;Falsches Üben von Xylophonmusik quält jeden größeren Zwerg.
02c6f3ce-09ab-4733-9dc8-33b268429331;-65;RFDevice #21;49,7598057398263;6,62035581309379;0;0;0;0;Unknown;Unknown;92;50;0;0;0;0;0;0;Falsches Üben von Xylophonmusik quält jeden größeren Zwerg.
ae5c2b27-455f-4f7f-81c4-5b97553c0e71;151;RFDevice #22;49,7640817642155;6,62482970164396;0;0;0;0;HackRF;Unknown;95;70;0;0;0;0;0;0;Vom Ödipuskomplex maßlos gequält, übt Wilfried zyklisches Jodeln.
7771e9ae-943b-494d-b529-b468a6d516db;-245;RFDevice #23;49,7547559029323;6,65539984507286;0;0;0;0;HackRF;Unknown;98;22;0;0;0;0;0;0;Vom Ödipuskomplex maßlos gequält, übt Wilfried zyklisches Jodeln.
b9e5c7bd-1ab7-4fdb-be2a-1ed48b6e1d8f;-343;RFDevice #24;49,7895661274499;6,65322008456267;0;0;0;0;Unknown;OmniDirectional;90;31;0;0;0;0;0;0;Falsches Üben von Xylophonmusik quält jeden größeren Zwerg.
f49ade98-44a8-4ac5-98e9-dab2e7aa476e;-578;RFDevice #25;49,752447241976;6,66430793383839;0;0;0;0;IdealSDR;OmniDirectional;101;12;0;0;0;0;0;0;Franz jagt im komplett verwahrlosten Taxi quer durch Bayern.
a844d05a-0c4d-42ce-9df8-3ce297c8dc90;755;RFDevice #26;49,7543830172756;6,63573922308909;0;0;0;0;Unknown;Unknown;87;50;0;0;0;0;0;0;Falsches Üben von Xylophonmusik quält jeden größeren Zwerg.
2dea5ef1-9947-4cec-9b47-281d61a8f9dd;-507;RFDevice #27;49,7694729647335;6,61504656039427;0;0;0;0;HackRF;Unknown;103;18;0;0;0;0;0;0;Falsches Üben von Xylophonmusik quält jeden größeren Zwerg.
8576da57-9c53-42ee-8bf8-39862920b4aa;-770;RFDevice #28;49,7685947265208;6,6464560434859;0;0;0;0;TwinRx;Unknown;99;63;0;0;0;0;0;0;The quick brown fox jumps over a lazy dog.
63fce616-d46c-4767-9cdf-2881bac6f384;-861;RFDevice #29;49,763226514746;6,62182318040269;0;0;0;0;HackRF;Unknown;97;44;0;0;0;0;0;0;Vom Ödipuskomplex maßlos gequält, übt Wilfried zyklisches Jodeln.
99fcfc37-bf54-4504-971a-7c38e52a5b90;-708;RFDevice #30;49,776731655421;6,64286613146922;0;0;0;0;HackRF;OmniDirectional;88;63;0;0;0;0;0;0;Franz jagt im komplett verwahrlosten Taxi quer durch Bayern.
2a27a54d-dc40-43ec-8af6-e0c40c052481;-388;RFDevice #31;49,7951576970606;6,64627709090085;0;0;0;0;TwinRx;OmniDirectional;103;73;0;0;0;0;0;0;The quick brown fox jumps over a lazy dog.
40c9c513-0c8c-4680-af08-4bca69f905d5;-955;RFDevice #32;49,7542547456585;6,62059245829512;0;0;0;0;TwinRx;OmniDirectional;92;50;0;0;0;0;0;0;Franz jagt im komplett verwahrlosten Taxi quer durch Bayern.
42ce8c0c-a1ca-4209-98c1-1656927ffbd5;-162;RFDevice #33;49,7503332649936;6,66074204056107;0;0;0;0;TwinRx;OmniDirectional;86;24;0;0;0;0;0;0;Vom Ödipuskomplex maßlos gequält, übt Wilfried zyklisches Jodeln.
bdb0dda5-7f4a-4143-a4ba-68c790e96ae5;979;RFDevice #34;49,7667481790718;6,62620665040636;0;0;0;0;HackRF;OmniDirectional;97;49;0;0;0;0;0;0;Falsches Üben von Xylophonmusik quält jeden größeren Zwerg.
530b9d18-99ab-44de-9761-7799b53a1ab1;412;RFDevice #35;49,7676173653181;6,63163998446983;0;0;0;0;TwinRx;OmniDirectional;86;14;0;0;0;0;0;0;Franz jagt im komplett verwahrlosten Taxi quer durch Bayern.
fcee6560-0853-424e-8a15-2e3aa1e3ff4b;-113;RFDevice #36;49,7881909827292;6,63864309814709;0;0;0;0;HackRF;Unknown;101;38;0;0;0;0;0;0;Vom Ödipuskomplex maßlos gequält, übt Wilfried zyklisches Jodeln.
d374d137-bf8c-4135-ba0b-8770230c495d;-902;RFDevice #37;49,7649132394412;6,61745208844438;0;0;0;0;IdealSDR;OmniDirectional;89;22;0;0;0;0;0;0;Franz jagt im komplett verwahrlosten Taxi quer durch Bayern.
073e86ff-69dc-4894-8153-838750ed88c9;565;RFDevice #38;49,7465508820351;6,64852754326483;0;0;0;0;Unknown;Unknown;97;73;0;0;0;0;0;0;The quick brown fox jumps over a lazy dog.
bbedf058-2d22-44e8-bb62-fc817eb535b1;212;RFDevice #39;49,7546466779096;6,66393598662887;0;0;0;0;TwinRx;OmniDirectional;104;16;0;0;0;0;0;0;The quick brown fox jumps over a lazy dog.
55c149bf-ad74-4eab-9d27-a31acae1bab9;-930;RFDevice #40;49,784302924973;6,61928033961895;0;0;0;0;IdealSDR;Unknown;101;15;0;0;0;0;0;0;Franz jagt im komplett verwahrlosten Taxi quer durch Bayern.
cd9a6986-0048-44c5-bf77-e486ea1818e3;-958;RFDevice #41;49,76936439471;6,62756888126855;0;0;0;0;Unknown;Unknown;93;56;0;0;0;0;0;0;The quick brown fox jumps over a lazy dog.
ddcfb1f0-bb96-4b12-8dec-1175aa3c0511;-478;RFDevice #42;49,7507751379509;6,65630433386965;0;0;0;0;IdealSDR;OmniDirectional;89;40;0;0;0;0;0;0;Falsches Üben von Xylophonmusik quält jeden größeren Zwerg.
94d5c40b-3484-4037-8f4f-9b502a783285;884;RFDevice #43;49,750393229548;6,6536707796594;0;0;0;0;HackRF;Unknown;98;57;0;0;0;0;0;0;Franz jagt im komplett verwahrlosten Taxi quer durch Bayern.
1ffda6f9-a543-4249-a544-90f283ddff5c;-396;RFDevice #44;49,7818899078321;6,62021243034886;0;0;0;0;HackRF;OmniDirectional;85;53;0;0;0;0;0;0;Falsches Üben von Xylophonmusik quält jeden größeren Zwerg.
540b52c0-ec4e-4502-948d-9946aeb91d7d;893;RFDevice #45;49,7697819667838;6,65521561701108;0;0;0;0;IdealSDR;OmniDirectional;103;64;0;0;0;0;0;0;Franz jagt im komplett verwahrlosten Taxi quer durch Bayern.
fdcb0125-721c-448b-9f39-85ff03bcabc7;50;RFDevice #46;49,7704316745485;6,63814036102427;0;0;0;0;Unknown;OmniDirectional;85;72;0;0;0;0;0;0;Falsches Üben von Xylophonmusik quält jeden größeren Zwerg.
67ca4a3b-2112-45e1-a3f7-3bedf9fef2cd;-312;RFDevice #47;49,7581241272771;6,62517706913197;0;0;0;0;TwinRx;OmniDirectional;99;35;0;0;0;0;0;0;The quick brown fox jumps over a lazy dog.
2a38ed84-6ec1-49dd-9419-05f7a81fb736;594;RFDevice #48;49,7539555827751;6,64873259062368;0;0;0;0;Unknown;OmniDirectional;88;33;0;0;0;0;0;0;Franz jagt im komplett verwahrlosten Taxi quer durch Bayern.
d3f86f90-2875-4454-9752-f5786789cd11;-31;RFDevice #49;49,7892224595011;6,62046876047308;0;0;0;0;Unknown;OmniDirectional;89;43;0;0;0;0;0;0;Franz jagt im komplett verwahrlosten Taxi quer durch Bayern.
8ab0fae7-7420-40c9-b2a6-0d5f0381fe6b;-357;RFDevice #50;49,7753332257732;6,65579202391491;0;0;0;0;HackRF;OmniDirectional;99;76;0;0;0;0;0;0;The quick brown fox jumps over a lazy dog.
a3026235-414d-438b-91cc-71eed42d5276;668;RFDevice #51;49,7607358177586;6,62224782650012;0;0;0;0;Unknown;Unknown;87;72;0;0;0;0;0;0;Franz jagt im komplett verwahrlosten Taxi quer durch Bayern.
8396e78e-c2ea-469c-aba3-4cdb4f396fd9;-747;RFDevice #52;49,7686189045396;6,63633195908118;0;0;0;0;IdealSDR;OmniDirectional;103;69;0;0;0;0;0;0;The quick brown fox jumps over a lazy dog.
9c0d7ad5-db1a-4c02-9cce-925dd4afb9e0;-682;RFDevice #53;49,7573379138862;6,63853229308912;0;0;0;0;HackRF;Unknown;104;35;0;0;0;0;0;0;Franz jagt im komplett verwahrlosten Taxi quer durch Bayern.
567bc7d2-af69-45f5-8543-f02bba640694;556;RFDevice #54;49,7552908110568;6,62404368427319;0;0;0;0;HackRF;Unknown;85;18;0;0;0;0;0;0;Franz jagt im komplett verwahrlosten Taxi quer durch Bayern.
73eec6a6-7bf4-45f3-bc53-0eb3d18ac972;-545;RFDevice #55;49,7656216395737;6,61654046068752;0;0;0;0;IdealSDR;OmniDirectional;94;37;0;0;0;0;0;0;The quick brown fox jumps over a lazy dog.
34869e47-517b-4715-aa02-33f988dc649b;960;RFDevice #56;49,7902955434118;6,65546019184206;0;0;0;0;Unknown;Unknown;90;62;0;0;0;0;0;0;The quick brown fox jumps over a lazy dog.
e0c570d3-fe9d-4b17-8c86-d5b38a773a21;490;RFDevice #57;49,768437199128;6,62310573221809;0;0;0;0;Unknown;OmniDirectional;98;34;0;0;0;0;0;0;Falsches Üben von Xylophonmusik quält jeden größeren Zwerg.
19342115-de61-4f7b-bb86-8ab8e07c1491;873;RFDevice #58;49,7459285773662;6,62018889401131;0;0;0;0;TwinRx;Unknown;93;30;0;0;0;0;0;0;Franz jagt im komplett verwahrlosten Taxi quer durch Bayern.
a3e792cc-f31f-413a-a02d-0c2375b40519;-326;RFDevice #59;49,7632237420823;6,66281853623368;0;0;0;0;Unknown;Unknown;101;33;0;0;0;0;0;0;Vom Ödipuskomplex maßlos gequält, übt Wilfried zyklisches Jodeln.
674cdb68-9c09-4444-8780-8e538e41be44;684;RFDevice #60;49,7507297735077;6,62899747373038;0;0;0;0;IdealSDR;OmniDirectional;93;34;0;0;0;0;0;0;The quick brown fox jumps over a lazy dog.
2323fbd7-561a-46e7-816a-aedc9909c9c9;-104;RFDevice #61;49,7840306198494;6,65048926742318;0;0;0;0;HackRF;Unknown;88;67;0;0;0;0;0;0;Vom Ödipuskomplex maßlos gequält, übt Wilfried zyklisches Jodeln.
1a2a6c5e-0c97-4b9e-a955-4ef44de6a68c;-899;RFDevice #62;49,753221688176;6,61889447526037;0;0;0;0;IdealSDR;OmniDirectional;100;40;0;0;0;0;0;0;Vom Ödipuskomplex maßlos gequält, übt Wilfried zyklisches Jodeln.
19ebdd6c-9a10-4285-b75e-9e6dc0d17cf9;199;RFDevice #63;49,7815015066673;6,64629485026775;0;0;0;0;HackRF;OmniDirectional;102;47;0;0;0;0;0;0;Falsches Üben von Xylophonmusik quält jeden größeren Zwerg.
282c527f-6be9-45ba-b328-e2d49aff9b79;-751;RFDevice #64;49,7685015709104;6,62157658623153;0;0;0;0;IdealSDR;OmniDirectional;91;61;0;0;0;0;0;0;Vom Ödipuskomplex maßlos gequält, übt Wilfried zyklisches Jodeln.
7259e681-850c-4aa9-9b41-a021354130af;306;RFDevice #65;49,7762703446672;6,62409070740193;0;0;0;0;IdealSDR;Unknown;101;25;0;0;0;0;0;0;Franz jagt im komplett verwahrlosten Taxi quer durch Bayern.
4540af57-d120-486d-aacf-e34892cb0dd9;73;RFDevice #66;49,765998790292;6,65503314984745;0;0;0;0;TwinRx;Unknown;91;34;0;0;0;0;0;0;Franz jagt im komplett verwahrlosten Taxi quer durch Bayern.
2ab8c17c-c8bc-4d31-823e-b01b92b42992;352;RFDevice #67;49,7824403241771;6,63594764961221;0;0;0;0;HackRF;Unknown;103;20;0;0;0;0;0;0;Vom Ödipuskomplex maßlos gequält, übt Wilfried zyklisches Jodeln.
0dfd44b8-e7c7-4b08-a778-0a9027ffd182;-519;RFDevice #68;49,785589797869;6,63138121183574;0;0;0;0;HackRF;OmniDirectional;98;20;0;0;0;0;0;0;Vom Ödipuskomplex maßlos gequält, übt Wilfried zyklisches Jodeln.
e59da73c-4e11-4e9e-98dd-ef725c232031;-147;RFDevice #69;49,7728221124721;6,63276230032698;0;0;0;0;TwinRx;Unknown;90;66;0;0;0;0;0;0;Falsches Üben von Xylophonmusik quält jeden größeren Zwerg.
bc81ca19-6140-4bcc-9fb6-e08f5e64edba;12;RFDevice #70;49,7675064504339;6,65921019788343;0;0;0;0;Unknown;OmniDirectional;101;20;0;0;0;0;0;0;Falsches Üben von Xylophonmusik quält jeden größeren Zwerg.
7f93dbb3-8108-46b7-90f0-3638dbea4d51;-778;RFDevice #71;49,7481834441526;6,63837823638631;0;0;0;0;TwinRx;Unknown;91;62;0;0;0;0;0;0;Vom Ödipuskomplex maßlos gequält, übt Wilfried zyklisches Jodeln.
5bd8d3f7-dd12-4933-8f68-03e83e6ce779;-79;RFDevice #72;49,7770013328645;6,661006351235;0;0;0;0;Unknown;Unknown;101;21;0;0;0;0;0;0;Falsches Üben von Xylophonmusik quält jeden größeren Zwerg.
8d8c1a1c-076f-4a2d-bf54-34bc2879b031;-471;RFDevice #73;49,7496326704153;6,62967456487006;0;0;0;0;IdealSDR;Unknown;97;44;0;0;0;0;0;0;The quick brown fox jumps over a lazy dog.
53936e8d-bf62-4a2e-803c-3406064550cf;854;RFDevice #74;49,7786360122042;6,66081101072538;0;0;0;0;HackRF;OmniDirectional;89;42;0;0;0;0;0;0;The quick brown fox jumps over a lazy dog.
3284ccff-1b27-4ead-88fd-4f766d6c6363;306;RFDevice #75;49,7718848683153;6,62990345448265;0;0;0;0;Unknown;OmniDirectional;94;66;0;0;0;0;0;0;Franz jagt im komplett verwahrlosten Taxi quer durch Bayern.
b782c5f1-87ea-4bc9-9850-92a1e3e777fc;588;RFDevice #76;49,7772992097545;6,62856227402522;0;0;0;0;Unknown;OmniDirectional;102;26;0;0;0;0;0;0;Vom Ödipuskomplex maßlos gequält, übt Wilfried zyklisches Jodeln.
965f073a-caf0-4189-a57e-a2c3feda8edf;-452;RFDevice #77;49,7465843048973;6,64764433339608;0;0;0;0;IdealSDR;Unknown;103;68;0;0;0;0;0;0;The quick brown fox jumps over a lazy dog.
ca927919-5fc9-411f-a092-b650afb5cbb0;117;RFDevice #78;49,7484415549423;6,65146791601636;0;0;0;0;IdealSDR;OmniDirectional;93;56;0;0;0;0;0;0;Franz jagt im komplett verwahrlosten Taxi quer durch Bayern.
3e20c6a7-623c-4cdd-91e2-cec055fcdc42;-653;RFDevice #79;49,7699445609905;6,62843047998321;0;0;0;0;Unknown;Unknown;89;56;0;0;0;0;0;0;Falsches Üben von Xylophonmusik quält jeden größeren Zwerg.
0044fcb4-7343-49b2-ae2e-c62bdf43b879;-443;RFDevice #80;49,7541104470975;6,63562737099171;0;0;0;0;HackRF;OmniDirectional;95;14;0;0;0;0;0;0;Franz jagt im komplett verwahrlosten Taxi quer durch Bayern.
2aacd28e-acf8-4a8d-a173-2d5c0899e2b0;-156;RFDevice #81;49,7562129806867;6,61794623195112;0;0;0;0;IdealSDR;Unknown;93;74;0;0;0;0;0;0;Vom Ödipuskomplex maßlos gequält, übt Wilfried zyklisches Jodeln.
e5172ec4-9bac-4bd8-8907-db299bef0edc;395;RFDevice #82;49,7856723912104;6,63508180937515;0;0;0;0;IdealSDR;Unknown;96;61;0;0;0;0;0;0;The quick brown fox jumps over a lazy dog.
ef5bc084-5b8e-43de-9ea3-07fc3e2c4772;933;RFDevice #83;49,7478729007401;6,65364236891919;0;0;0;0;Unknown;Unknown;90;23;0;0;0;0;0;0;Franz jagt im komplett verwahrlosten Taxi quer durch Bayern.
75520ddf-2a5f-4e2e-ade3-361598b10b66;-269;RFDevice #84;49,7893369456814;6,65142008566378;0;0;0;0;HackRF;Unknown;95;20;0;0;0;0;0;0;Franz jagt im komplett verwahrlosten Taxi quer durch Bayern.
8717c729-975a-429e-b740-78e130a68272;994;RFDevice #85;49,7801175197837;6,65613821474669;0;0;0;0;IdealSDR;OmniDirectional;97;54;0;0;0;0;0;0;Vom Ödipuskomplex maßlos gequält, übt Wilfried zyklisches Jodeln.
4909c47d-a8bf-4111-8a5a-72149574bddb;147;RFDevice #86;49,773379383165;6,62923313880783;0;0;0;0;TwinRx;Unknown;95;11;0;0;0;0;0;0;Vom Ödipuskomplex maßlos gequält, übt Wilfried zyklisches Jodeln.
ae2e4840-9c03-4db2-83e1-b58a80c1a77a;-120;RFDevice #87;49,7473717834433;6,63305256770614;0;0;0;0;HackRF;Unknown;89;39;0;0;0;0;0;0;Franz jagt im komplett verwahrlosten Taxi quer durch Bayern.
50bcb131-2cfc-4d2b-a87c-ef758ad4434e;-963;RFDevice #88;49,7950275732059;6,64783139230596;0;0;0;0;TwinRx;Unknown;96;22;0;0;0;0;0;0;Franz jagt im komplett verwahrlosten Taxi quer durch Bayern.
5d5699fa-2610-40da-9dac-881ab6b963a8;308;RFDevice #89;49,7650801969175;6,6222160098434;0;0;0;0;IdealSDR;Unknown;96;11;0;0;0;0;0;0;The quick brown fox jumps over a lazy dog.
1ffd46de-85dd-42b6-89d0-7c0e51d7666e;-185;RFDevice #90;49,7479136505498;6,62893021570948;0;0;0;0;IdealSDR;Unknown;94;28;0;0;0;0;0;0;Falsches Üben von Xylophonmusik quält jeden größeren Zwerg.
be353351-d7ba-4231-a12f-695a627b46f2;719;RFDevice #91;49,7459404225087;6,65989580543255;0;0;0;0;HackRF;OmniDirectional;102;26;0;0;0;0;0;0;Falsches Üben von Xylophonmusik quält jeden größeren Zwerg.
bb94e61f-de64-4843-8a09-6fb256f46859;-447;RFDevice #92;49,7784221871068;6,62251385774594;0;0;0;0;HackRF;Unknown;103;10;0;0;0;0;0;0;Falsches Üben von Xylophonmusik quält jeden größeren Zwerg.
75f6b1d0-4757-410c-b658-2e9cd5a2d6e4;-248;RFDevice #93;49,7499716044747;6,6171259805129;0;0;0;0;HackRF;OmniDirectional;104;78;0;0;0;0;0;0;Falsches Üben von Xylophonmusik quält jeden größeren Zwerg.
b81e4148-7b2b-451d-b856-09f1ef62d46e;-955;RFDevice #94;49,7475589711086;6,65921396948375;0;0;0;0;TwinRx;Unknown;92;23;0;0;0;0;0;0;Vom Ödipuskomplex maßlos gequält, übt Wilfried zyklisches Jodeln.
6889c629-74b7-4f8f-97a2-d311d4975c53;452;RFDevice #95;49,7857578827811;6,65707001241267;0;0;0;0;TwinRx;Unknown;98;13;0;0;0;0;0;0;Falsches Üben von Xylophonmusik quält jeden größeren Zwerg.
9dd6dc7c-6396-40e0-a860-40fc0e040746;-686;RFDevice #96;49,7632971480894;6,6542082136937;0;0;0;0;IdealSDR;OmniDirectional;98;33;0;0;0;0;0;0;The quick brown fox jumps over a lazy dog.
dca8bb6c-a97a-464e-a707-d17755bbc67f;-911;RFDevice #97;49,7595970939535;6,64909337455844;0;0;0;0;Unknown;OmniDirectional;102;43;0;0;0;0;0;0;Falsches Üben von Xylophonmusik quält jeden größeren Zwerg.
df096e79-3303-4d2f-88eb-05d7740bcad1;-950;RFDevice #98;49,7465617317801;6,63817518412996;0;0;0;0;IdealSDR;Unknown;95;70;0;0;0;0;0;0;Falsches Üben von Xylophonmusik quält jeden größeren Zwerg.
ca8cd1ed-668e-4aae-9c58-c2457c3d7462;-65;RFDevice #99;49,7770298528023;6,64686459302304;0;0;0;0;IdealSDR;OmniDirectional;90;32;0;0;0;0;0;0;Vom Ödipuskomplex maßlos gequält, übt Wilfried zyklisches Jodeln.
6354a84f-1dc1-4e21-8817-b1ab499e2a4c;-930;RFDevice #100;49,7577682400269;6,62746803600703;0;0;0;0;IdealSDR;OmniDirectional;103;42;0;0;0;0;0;0;The quick brown fox jumps over a lazy dog.
c92f1e60-13ba-4cef-be4a-3a33a18aef4c;423;RFDevice #101;49,7662475774717;6,64884024378338;0;0;0;0;TwinRx;Unknown;91;14;0;0;0;0;0;0;Falsches Üben von Xylophonmusik quält jeden größeren Zwerg.
fd3ee5cc-7f32-47cb-9b24-c5b4f8c78701;-353;RFDevice #102;49,7923657266033;6,64903260641235;0;0;0;0;TwinRx;OmniDirectional;104;67;0;0;0;0;0;0;Vom Ödipuskomplex maßlos gequält, übt Wilfried zyklisches Jodeln.
3837a8c3-03ea-40c8-83f3-9a6ccb6dc919;-5;RFDevice #103;49,7887498052849;6,64520935990639;0;0;0;0;Unknown;OmniDirectional;88;36;0;0;0;0;0;0;Vom Ödipuskomplex maßlos gequält, übt Wilfried zyklisches Jodeln.
272af94f-af09-426b-a4a5-5388807e52f5;929;RFDevice #104;49,7455700364287;6,6571256428945;0;0;0;0;IdealSDR;Unknown;94;61;0;0;0;0;0;0;Franz jagt im komplett verwahrlosten Taxi quer durch Bayern.
de04c0d9-2bf3-4780-a522-ce731ef1f1bf;115;RFDevice #105;49,7501137073496;6,63412684350015;0;0;0;0;TwinRx;Unknown;89;27;0;0;0;0;0;0;Franz jagt im komplett verwahrlosten Taxi quer durch Bayern.
addf43f7-3153-4a40-8a0c-8327b93260e2;134;RFDevice #106;49,7839293346543;6,65777409081258;0;0;0;0;IdealSDR;Unknown;98;41;0;0;0;0;0;0;Franz jagt im komplett verwahrlosten Taxi quer durch Bayern.
55442cf5-1dc0-4651-8f94-73961bf4a168;-158;RFDevice #107;49,7757599671369;6,64050010036714;0;0;0;0;HackRF;OmniDirectional;98;35;0;0;0;0;0;0;Vom Ödipuskomplex maßlos gequält, übt Wilfried zyklisches Jodeln.
9a7dfe27-9e43-4538-b902-389e726af2bd;-915;RFDevice #108;49,7919961846041;6,64889843377247;0;0;0;0;TwinRx;OmniDirectional;102;28;0;0;0;0;0;0;Falsches Üben von Xylophonmusik quält jeden größeren Zwerg.
cb324261-6fb8-40bb-8321-7ff11a79c2aa;-591;RFDevice #109;49,7738467942679;6,6197186375782;0;0;0;0;IdealSDR;Unknown;90;66;0;0;0;0;0;0;The quick brown fox jumps over a lazy dog.
9aa47bf8-4e7c-424e-be8d-7b5b6953a8aa;243;RFDevice #110;49,7679770489418;6,62545952115476;0;0;0;0;IdealSDR;OmniDirectional;89;19;0;0;0;0;0;0;The quick brown fox jumps over a lazy dog.
caee7c4e-e7a4-4d59-a5f8-8d0301f68354;105;RFDevice #111;49,7838442471147;6,65419630731665;0;0;0;0;Unknown;Unknown;93;66;0;0;0;0;0;0;Falsches Üben von Xylophonmusik quält jeden größeren Zwerg.
897bb672-9e3b-4e3c-a92c-1512f5f1bdc8;470;RFDevice #112;49,7865746846471;6,64046412968578;0;0;0;0;Unknown;Unknown;96;58;0;0;0;0;0;0;Vom Ödipuskomplex maßlos gequält, übt Wilfried zyklisches Jodeln.
1219c87c-542e-4575-8764-786878d7169c;16;RFDevice #113;49,7457711519997;6,66243941323028;0;0;0;0;IdealSDR;Unknown;91;45;0;0;0;0;0;0;Franz jagt im komplett verwahrlosten Taxi quer durch Bayern.
62785f1a-02f2-479f-a13b-475ffb4d3005;594;RFDevice #114;49,7568751509444;6,64895337274729;0;0;0;0;Unknown;OmniDirectional;87;28;0;0;0;0;0;0;Falsches Üben von Xylophonmusik quält jeden größeren Zwerg.
6aece4fe-50bb-4ed6-9ae1-12d067384192;600;RFDevice #115;49,7644451960867;6,62076988583946;0;0;0;0;TwinRx;OmniDirectional;90;72;0;0;0;0;0;0;Falsches Üben von Xylophonmusik quält jeden größeren Zwerg.
aab9aeea-ad59-4f6d-9ce3-1d940e312a31;521;RFDevice #116;49,7566948693388;6,63493686354497;0;0;0;0;Unknown;Unknown;103;62;0;0;0;0;0;0;Franz jagt im komplett verwahrlosten Taxi quer durch Bayern.
be275143-047a-4798-8b29-2e5d5decbc92;530;RFDevice #117;49,7705115471474;6,65156217575626;0;0;0;0;HackRF;OmniDirectional;86;61;0;0;0;0;0;0;Franz jagt im komplett verwahrlosten Taxi quer durch Bayern.
ef1c49fe-ad69-4180-855f-c769645e52c7;-463;RFDevice #118;49,7772618952678;6,62499030025922;0;0;0;0;TwinRx;Unknown;104;37;0;0;0;0;0;0;Vom Ödipuskomplex maßlos gequält, übt Wilfried zyklisches Jodeln.
ba82de7f-24da-465b-9dd3-10aaaf6de10a;110;RFDevice #119;49,7797645102272;6,62001252170201;0;0;0;0;IdealSDR;OmniDirectional;104;54;0;0;0;0;0;0;Franz jagt im komplett verwahrlosten Taxi quer durch Bayern.
d0bb7ce9-ab72-4ed4-9e06-c24220ba9b32;-763;RFDevice #120;49,7542812527987;6,62916869116922;0;0;0;0;HackRF;Unknown;99;37;0;0;0;0;0;0;Falsches Üben von Xylophonmusik quält jeden größeren Zwerg.
6adbc6bf-dee5-46f1-ae7e-cca2e2355a98;-35;RFDevice #121;49,7771233347016;6,61933330125624;0;0;0;0;Unknown;OmniDirectional;104;48;0;0;0;0;0;0;Vom Ödipuskomplex maßlos gequält, übt Wilfried zyklisches Jodeln.
37c14733-7a9f-415a-a15b-cdec62ae1305;301;RFDevice #122;49,7893530087141;6,63644659380743;0;0;0;0;HackRF;OmniDirectional;88;11;0;0;0;0;0;0;Falsches Üben von Xylophonmusik quält jeden größeren Zwerg.
46f2ce36-3776-46fa-9c1c-d8fc2aa8b52b;662;RFDevice #123;49,7845766244961;6,62471668469488;0;0;0;0;IdealSDR;Unknown;96;51;0;0;0;0;0;0;Falsches Üben von Xylophonmusik quält jeden größeren Zwerg.
e62bb310-eb05-4b3e-9c8a-d82d025273d6;731;RFDevice #124;49,7698212651506;6,62323477243238;0;0;0;0;IdealSDR;Unknown;92;32;0;0;0;0;0;0;Vom Ödipuskomplex maßlos gequält, übt Wilfried zyklisches Jodeln.
c5f069e6-c913-424b-bf7c-422383d4e25c;-501;RFDevice #125;49,7610070926299;6,62737661326196;0;0;0;0;IdealSDR;Unknown;93;26;0;0;0;0;0;0;Vom Ödipuskomplex maßlos gequält, übt Wilfried zyklisches Jodeln.
f43e936e-4a34-44b5-aa69-7803e79a0dfa;-738;RFDevice #126;49,7647981820808;6,64008515164274;0;0;0;0;TwinRx;Unknown;89;22;0;0;0;0;0;0;Falsches Üben von Xylophonmusik quält jeden größeren Zwerg.
f968dcfa-2db8-4466-9a14-286534189b87;-690;RFDevice #127;49,7693469051705;6,64048978524785;0;0;0;0;IdealSDR;Unknown;91;15;0;0;0;0;0;0;Falsches Üben von Xylophonmusik quält jeden größeren Zwerg.
4d760b6a-5a53-4a5c-b291-322e450cc333;-910;RFDevice #128;49,7609067209227;6,62030290372698;0;0;0;0;Unknown;Unknown;94;73;0;0;0;0;0;0;The quick brown fox jumps over a lazy dog.
80b631cf-f2ab-409a-9d95-d9956a7d9a73;109;RFDevice #129;49,7909424992347;6,62417527712624;0;0;0;0;TwinRx;Unknown;103;75;0;0;0;0;0;0;The quick brown fox jumps over a lazy dog.
5d4836ac-44b9-4e9d-8a38-9ee6c3582433;101;RFDevice #130;49,7765618314968;6,66203329665695;0;0;0;0;HackRF;OmniDirectional;85;25;0;0;0;0;0;0;Vom Ödipuskomplex maßlos gequält, übt Wilfried zyklisches Jodeln.
72e7da4f-bc9b-4d70-87a9-3fd270bb8417;-390;RFDevice #131;49,755611423603;6,66165448061747;0;0;0;0;HackRF;Unknown;88;77;0;0;0;0;0;0;Falsches Üben von Xylophonmusik quält jeden größeren Zwerg.
1e70eeda-7704-4d81-87a3-cad315f5f3d1;-545;RFDevice #132;49,7633692290341;6,6184363781748;0;0;0;0;TwinRx;OmniDirectional;91;63;0;0;0;0;0;0;Vom Ödipuskomplex maßlos gequält, übt Wilfried zyklisches Jodeln.
9ef43d78-42cf-4741-8868-b26dcb62ce15;-52;RFDevice #133;49,7573808904417;6,6160959956266;0;0;0;0;TwinRx;OmniDirectional;93;13;0;0;0;0;0;0;Franz jagt im komplett verwahrlosten Taxi quer durch Bayern.
6f74c32d-9cc3-4bbc-8dc6-e56396a1e588;76;RFDevice #134;49,7504608567684;6,64387293338504;0;0;0;0;Unknown;OmniDirectional;98;66;0;0;0;0;0;0;Franz jagt im komplett verwahrlosten Taxi quer durch Bayern.
8b1cf428-e493-4ea3-9788-38984e4cb9b1;-826;RFDevice #135;49,7675901291386;6,64445091734396;0;0;0;0;TwinRx;Unknown;96;37;0;0;0;0;0;0;The quick brown fox jumps over a lazy dog.
3fdb7645-f3fa-46b9-8a96-fa78362eb924;885;RFDevice #136;49,7578816122989;6,64097788451765;0;0;0;0;TwinRx;Unknown;92;16;0;0;0;0;0;0;Franz jagt im komplett verwahrlosten Taxi quer durch Bayern.
a8f66977-3133-40b7-bfa2-5d92adf56fbe;731;RFDevice #137;49,7592722672192;6,66206588149181;0;0;0;0;Unknown;Unknown;96;55;0;0;0;0;0;0;Falsches Üben von Xylophonmusik quält jeden größeren Zwerg.
60d5efdc-7a6f-43a9-b80d-7e1a5b113a86;-703;RFDevice #138;49,7797123498067;6,65406764298415;0;0;0;0;Unknown;Unknown;85;49;0;0;0;0;0;0;Vom Ödipuskomplex maßlos gequält, übt Wilfried zyklisches Jodeln.
2e12ab37-f157-405b-8984-0e3fb319b878;115;RFDevice #139;49,7471846232987;6,63830255769594;0;0;0;0;Unknown;Unknown;87;19;0;0;0;0;0;0;Falsches Üben von Xylophonmusik quält jeden größeren Zwerg.
74075a08-7330-40ce-93a3-9a3725a9ef8e;701;RFDevice #140;49,7785672684677;6,65000228012926;0;0;0;0;Unknown;Unknown;95;38;0;0;0;0;0;0;Franz jagt im komplett verwahrlosten Taxi quer durch Bayern.
2fcb4037-74d5-45c5-86a5-b1df6a0da555;-994;RFDevice #141;49,7636497849307;6,61805425724404;0;0;0;0;IdealSDR;Unknown;104;13;0;0;0;0;0;0;Vom Ödipuskomplex maßlos gequält, übt Wilfried zyklisches Jodeln.
a179338e-0802-4859-93ea-ce6b31f7b8ff;590;RFDevice #142;49,7813879099466;6,63803928831049;0;0;0;0;Unknown;Unknown;97;62;0;0;0;0;0;0;Falsches Üben von Xylophonmusik quält jeden größeren Zwerg.
5f9c6f34-da40-40a3-b121-849a2cb04c45;369;RFDevice #143;49,7934313195838;6,66438147733206;0;0;0;0;Unknown;Unknown;89;42;0;0;0;0;0;0;Vom Ödipuskomplex maßlos gequält, übt Wilfried zyklisches Jodeln.
21c3b0d5-7ab0-4e68-be82-f163a18ebaf5;-714;RFDevice #144;49,7484829322771;6,66482454014715;0;0;0;0;HackRF;Unknown;102;77;0;0;0;0;0;0;Vom Ödipuskomplex maßlos gequält, übt Wilfried zyklisches Jodeln.
018859d9-2021-4e6c-8166-e58f3ade76e6;-455;RFDevice #145;49,7769296811664;6,65342161368752;0;0;0;0;IdealSDR;Unknown;94;68;0;0;0;0;0;0;Vom Ödipuskomplex maßlos gequält, übt Wilfried zyklisches Jodeln.
464091fc-edc8-47cb-9070-03ab1d9a96cd;974;RFDevice #146;49,7933184047309;6,61857428779307;0;0;0;0;IdealSDR;Unknown;90;15;0;0;0;0;0;0;Franz jagt im komplett verwahrlosten Taxi quer durch Bayern.
352f6d30-9541-4a58-9010-3d7a5443fc67;834;RFDevice #147;49,7853062616704;6,61897009553354;0;0;0;0;Unknown;Unknown;97;26;0;0;0;0;0;0;Falsches Üben von Xylophonmusik quält jeden größeren Zwerg.
f38ad1e0-943c-4a45-baa5-b7391adf9e75;791;RFDevice #148;49,7625592169987;6,66243033367336;0;0;0;0;TwinRx;Unknown;99;54;0;0;0;0;0;0;Falsches Üben von Xylophonmusik quält jeden größeren Zwerg.
fa5239df-ac2a-4ca7-94b6-292cc705ab55;521;RFDevice #149;49,786505812714;6,64348105431245;0;0;0;0;IdealSDR;Unknown;94;74;0;0;0;0;0;0;Franz jagt im komplett verwahrlosten Taxi quer durch Bayern.
3165883b-34e7-4dd5-9205-906bdd685d59;-754;RFDevice #150;49,7646075820264;6,65553455503929;0;0;0;0;Unknown;OmniDirectional;93;12;0;0;0;0;0;0;Falsches Üben von Xylophonmusik quält jeden größeren Zwerg.
14c99648-479f-430b-a743-668155d874de;978;RFDevice #151;49,7835588831954;6,63519040126143;0;0;0;0;IdealSDR;Unknown;85;18;0;0;0;0;0;0;Vom Ödipuskomplex maßlos gequält, übt Wilfried zyklisches Jodeln.
e2246c3d-0585-4b20-81a2-9c835ae0af30;-210;RFDevice #152;49,7951977935708;6,63258167331707;0;0;0;0;TwinRx;Unknown;88;55;0;0;0;0;0;0;The quick brown fox jumps over a lazy dog.
03925fde-4ad9-43f1-b9b2-a8e68b21e332;-352;RFDevice #153;49,7534056851301;6,62814258156272;0;0;0;0;Unknown;Unknown;102;37;0;0;0;0;0;0;The quick brown fox jumps over a lazy dog.
414c6c8d-481b-46e1-8bf3-93f7e8714b57;740;RFDevice #154;49,7887814110204;6,65632081196952;0;0;0;0;IdealSDR;Unknown;90;53;0;0;0;0;0;0;The quick brown fox jumps over a lazy dog.
e588cc63-4356-4fef-a10c-a7d9a48fd44a;-388;RFDevice #155;49,75026732207;6,64854317900671;0;0;0;0;IdealSDR;OmniDirectional;96;17;0;0;0;0;0;0;Falsches Üben von Xylophonmusik quält jeden größeren Zwerg.
2f60db4c-9b2f-49f0-a211-73d8aee8b188;399;RFDevice #156;49,7910033057047;6,65406691741402;0;0;0;0;Unknown;OmniDirectional;90;58;0;0;0;0;0;0;Falsches Üben von Xylophonmusik quält jeden größeren Zwerg.
5a917028-b274-4c40-bb11-d6fcac2d9de5;465;RFDevice #157;49,7729425665209;6,6466276548742;0;0;0;0;Unknown;OmniDirectional;88;19;0;0;0;0;0;0;Franz jagt im komplett verwahrlosten Taxi quer durch Bayern.
c7f5e881-dc68-41c9-bae8-60cfc590db10;-255;RFDevice #158;49,7946408617163;6,62527225767987;0;0;0;0;Unknown;OmniDirectional;104;70;0;0;0;0;0;0;Franz jagt im komplett verwahrlosten Taxi quer durch Bayern.
8ab83318-441e-43e1-92e3-7004cb034b21;-247;RFDevice #159;49,7904508690882;6,6312151525037;0;0;0;0;HackRF;Unknown;94;75;0;0;0;0;0;0;Falsches Üben von Xylophonmusik quält jeden größeren Zwerg.
fea201ed-6ed6-462b-9b8d-4bb0eec77f18;-906;RFDevice #160;49,7709629620168;6,62296016475338;0;0;0;0;Unknown;OmniDirectional;95;29;0;0;0;0;0;0;Vom Ödipuskomplex maßlos gequält, übt Wilfried zyklisches Jodeln.
26102783-edff-41cc-97d4-a683df99d342;-652;RFDevice #161;49,7894271691624;6,63498099491712;0;0;0;0;IdealSDR;Unknown;97;29;0;0;0;0;0;0;Franz jagt im komplett verwahrlosten Taxi quer durch Bayern.
b1ee40d9-fee9-42e2-86f2-85b3244aa327;924;RFDevice #162;49,7742957239962;6,65580400114232;0;0;0;0;HackRF;OmniDirectional;88;50;0;0;0;0;0;0;Vom Ödipuskomplex maßlos gequält, übt Wilfried zyklisches Jodeln.
0e64a053-db25-499c-8d16-2606ab69ddc7;-894;RFDevice #163;49,7786364160722;6,6384981699422;0;0;0;0;IdealSDR;Unknown;90;41;0;0;0;0;0;0;The quick brown fox jumps over a lazy dog.
6183093e-2a14-4b39-a915-f7f66dfff6b0;217;RFDevice #164;49,788729603315;6,66229416791005;0;0;0;0;TwinRx;OmniDirectional;91;78;0;0;0;0;0;0;Falsches Üben von Xylophonmusik quält jeden größeren Zwerg.
10cd50c1-5352-4a36-a6d1-ece10d2dd4f9;413;RFDevice #165;49,7770293231825;6,6528352448452;0;0;0;0;HackRF;Unknown;97;43;0;0;0;0;0;0;Falsches Üben von Xylophonmusik quält jeden größeren Zwerg.
54634b23-f823-4723-bcb1-5d4123ab18b1;253;RFDevice #166;49,7551795407333;6,63794396355666;0;0;0;0;Unknown;Unknown;97;39;0;0;0;0;0;0;Falsches Üben von Xylophonmusik quält jeden größeren Zwerg.
7d349189-d1db-4ee3-b729-832941cb1893;872;RFDevice #167;49,7678715410371;6,65254401683008;0;0;0;0;HackRF;OmniDirectional;85;52;0;0;0;0;0;0;Falsches Üben von Xylophonmusik quält jeden größeren Zwerg.
3731780e-8883-4391-bcac-90d14d1a1b97;-130;RFDevice #168;49,7518895334684;6,64696633894335;0;0;0;0;Unknown;Unknown;97;18;0;0;0;0;0;0;Vom Ödipuskomplex maßlos gequält, übt Wilfried zyklisches Jodeln.
80b11684-8ea1-436e-8415-d63a6d69e3dc;187;RFDevice #169;49,7947520039364;6,64630717734648;0;0;0;0;TwinRx;OmniDirectional;90;18;0;0;0;0;0;0;The quick brown fox jumps over a lazy dog.
ae1243a4-9905-4aff-8635-1e4ea47e0037;-624;RFDevice #170;49,7813412911515;6,64564123853852;0;0;0;0;Unknown;Unknown;95;54;0;0;0;0;0;0;Franz jagt im komplett verwahrlosten Taxi quer durch Bayern.
03d2247a-2172-424d-997a-b2bfdf720304;-105;RFDevice #171;49,7494054950649;6,65143786922178;0;0;0;0;TwinRx;Unknown;95;63;0;0;0;0;0;0;Vom Ödipuskomplex maßlos gequält, übt Wilfried zyklisches Jodeln.
d5f482c3-c95a-4072-bc0b-42f906f63dc8;-947;RFDevice #172;49,7881250679781;6,65805272888315;0;0;0;0;HackRF;Unknown;99;15;0;0;0;0;0;0;Franz jagt im komplett verwahrlosten Taxi quer durch Bayern.
50645203-9148-4d73-8d75-58ea6cf28e95;-842;RFDevice #173;49,7867793017349;6,63144442356273;0;0;0;0;TwinRx;Unknown;99;41;0;0;0;0;0;0;Vom Ödipuskomplex maßlos gequält, übt Wilfried zyklisches Jodeln.
fcf9854a-6497-4704-bb86-83e0ab921184;-352;RFDevice #174;49,7608307450938;6,62779803463169;0;0;0;0;HackRF;OmniDirectional;101;16;0;0;0;0;0;0;Falsches Üben von Xylophonmusik quält jeden größeren Zwerg.
c57a6ee0-ff07-40d9-a294-c843c23c2956;1;RFDevice #175;49,7774190318078;6,63128877690602;0;0;0;0;TwinRx;Unknown;96;14;0;0;0;0;0;0;Franz jagt im komplett verwahrlosten Taxi quer durch Bayern.
d093d14a-073d-414b-8b9a-e7b386c15607;-549;RFDevice #176;49,7933047681428;6,64938483701073;0;0;0;0;TwinRx;OmniDirectional;98;43;0;0;0;0;0;0;The quick brown fox jumps over a lazy dog.
7d4006db-aaa2-4c30-b2f5-805438103630;283;RFDevice #177;49,7751399617172;6,64959883254017;0;0;0;0;Unknown;OmniDirectional;104;11;0;0;0;0;0;0;Vom Ödipuskomplex maßlos gequält, übt Wilfried zyklisches Jodeln.
8e55ad50-bd70-4b7d-8af3-0ea8719a9d6c;266;RFDevice #178;49,74893885838;6,62694953797257;0;0;0;0;HackRF;OmniDirectional;93;27;0;0;0;0;0;0;Franz jagt im komplett verwahrlosten Taxi quer durch Bayern.
95fe09da-a88b-41ff-9ecd-de4a6d434efa;519;RFDevice #179;49,7928263854546;6,66269915253064;0;0;0;0;HackRF;OmniDirectional;94;20;0;0;0;0;0;0;Vom Ödipuskomplex maßlos gequält, übt Wilfried zyklisches Jodeln.
33839718-c978-46b4-b453-f7709d702adf;540;RFDevice #180;49,7591630914169;6,63639926494877;0;0;0;0;IdealSDR;OmniDirectional;102;27;0;0;0;0;0;0;Vom Ödipuskomplex maßlos gequält, übt Wilfried zyklisches Jodeln.
6a112c06-84cb-47fc-8f2c-ec9a85c0ba8a;663;RFDevice #181;49,7839563866182;6,65036436579687;0;0;0;0;Unknown;OmniDirectional;87;60;0;0;0;0;0;0;Vom Ödipuskomplex maßlos gequält, übt Wilfried zyklisches Jodeln.
b30d7e62-ae32-4b66-91ce-32f1103258db;237;RFDevice #182;49,7745385578826;6,6630243801993;0;0;0;0;Unknown;OmniDirectional;100;64;0;0;0;0;0;0;Falsches Üben von Xylophonmusik quält jeden größeren Zwerg.
2f957929-7928-489b-a674-48644d73c73e;419;RFDevice #183;49,7701765281819;6,65524400197693;0;0;0;0;HackRF;Unknown;87;17;0;0;0;0;0;0;Franz jagt im komplett verwahrlosten Taxi quer durch Bayern.
53188598-b6fc-4559-a2ef-bdfed88e9651;-99;RFDevice #184;49,7536845677195;6,62546460871387;0;0;0;0;Unknown;Unknown;85;61;0;0;0;0;0;0;Falsches Üben von Xylophonmusik quält jeden größeren Zwerg.
c1b4b411-cdbc-4795-a200-418cc446e44f;648;RFDevice #185;49,7746792781625;6,63667434657783;0;0;0;0;TwinRx;Unknown;93;13;0;0;0;0;0;0;Vom Ödipuskomplex maßlos gequält, übt Wilfried zyklisches Jodeln.
d8665a64-d6ff-4d17-af49-f9eca2bc897c;-553;RFDevice #186;49,7668393202781;6,6503185798836;0;0;0;0;Unknown;Unknown;91;25;0;0;0;0;0;0;Falsches Üben von Xylophonmusik quält jeden größeren Zwerg.
d1b7bc7d-2835-4542-b05a-bd64d58a48f3;-1;RFDevice #187;49,7761411478044;6,6304806532435;0;0;0;0;TwinRx;OmniDirectional;100;75;0;0;0;0;0;0;Vom Ödipuskomplex maßlos gequält, übt Wilfried zyklisches Jodeln.
b930d1dc-9623-443a-a973-6617021b30a6;315;RFDevice #188;49,7728611364479;6,63370028148591;0;0;0;0;Unknown;Unknown;101;78;0;0;0;0;0;0;Vom Ödipuskomplex maßlos gequält, übt Wilfried zyklisches Jodeln.
d4344ed4-d256-48ed-8ec5-4421b9e1c3c0;701;RFDevice #189;49,755880200411;6,66395478386164;0;0;0;0;TwinRx;OmniDirectional;90;17;0;0;0;0;0;0;The quick brown fox jumps over a lazy dog.
d3d5e647-2bc9-495f-bbd1-1707ce01171a;-121;RFDevice #190;49,7534293742744;6,62695584030228;0;0;0;0;HackRF;OmniDirectional;91;54;0;0;0;0;0;0;Franz jagt im komplett verwahrlosten Taxi quer durch Bayern.
d33b5b33-d074-4067-a3e5-1eff4ef7a65a;895;RFDevice #191;49,7569318116087;6,63563742301238;0;0;0;0;Unknown;Unknown;89;57;0;0;0;0;0;0;Franz jagt im komplett verwahrlosten Taxi quer durch Bayern.
52053f3b-7089-4139-9712-4f2ece30b79d;285;RFDevice #192;49,7830433077444;6,65746265260864;0;0;0;0;IdealSDR;OmniDirectional;86;62;0;0;0;0;0;0;The quick brown fox jumps over a lazy dog.
65356e85-8ca1-4418-84cf-732d401fb946;-110;RFDevice #193;49,7498810705606;6,66190202932442;0;0;0;0;HackRF;OmniDirectional;94;53;0;0;0;0;0;0;Franz jagt im komplett verwahrlosten Taxi quer durch Bayern.
b5271b84-9d92-4e00-a8a5-d83dc3258adb;1;RFDevice #194;49,7465661462724;6,618773049749;0;0;0;0;Unknown;Unknown;98;26;0;0;0;0;0;0;The quick brown fox jumps over a lazy dog.
70cfdd3a-3539-430c-89e1-d181d4cad8ba;816;RFDevice #195;49,7585839971352;6,61616655276458;0;0;0;0;TwinRx;OmniDirectional;86;75;0;0;0;0;0;0;Vom Ödipuskomplex maßlos gequält, übt Wilfried zyklisches Jodeln.
90a37898-f319-4994-b8a2-a3e6c35725a1;60;RFDevice #196;49,7923230673029;6,61898232100498;0;0;0;0;TwinRx;OmniDirectional;104;26;0;0;0;0;0;0;The quick brown fox jumps over a lazy dog.
d2dc4563-a81f-46c5-af07-19df163c046c;-168;RFDevice #197;49,7867747711533;6,65684247987677;0;0;0;0;HackRF;OmniDirectional;91;62;0;0;0;0;0;0;The quick brown fox jumps over a lazy dog.
05348476-4ab1-417f-a2d3-c7b115419398;208;RFDevice #198;49,7544697416379;6,63628854818018;0;0;0;0;TwinRx;OmniDirectional;100;45;0;0;0;0;0;0;Falsches Üben von Xylophonmusik quält jeden größeren Zwerg.
08d159e0-6b94-42de-aa41-0a19618de48d;22;RFDevice #199;49,7712058125273;6,62709174673883;0;0;0;0;Unknown;OmniDirectional;86;11;0;0;0;0;0;0;The quick brown fox jumps over a lazy dog.
179f135f-4f50-448c-97b5-77bf907dd7a0;-682;RFDevice #200;49,7606049084963;6,65385863880821;0;0;0;0;HackRF;OmniDirectional;85;67;0;0;0;0;0;0;Vom Ödipuskomplex maßlos gequält, übt Wilfried zyklisches Jodeln.
f2a6eabd-1e05-4319-9bdb-2074ddc411de;560;RFDevice #201;49,7814155696217;6,63973282597961;0;0;0;0;TwinRx;Unknown;102;76;0;0;0;0;0;0;Vom Ödipuskomplex maßlos gequält, übt Wilfried zyklisches Jodeln.
ed1dc86f-e550-497b-81ff-8711317d5573;17;RFDevice #202;49,7739719256748;6,6182558827142;0;0;0;0;IdealSDR;Unknown;90;44;0;0;0;0;0;0;Falsches Üben von Xylophonmusik quält jeden größeren Zwerg.
51f5f576-04f0-455b-a857-805a53a6d945;-128;RFDevice #203;49,7502768681264;6,61940662996364;0;0;0;0;Unknown;Unknown;94;30;0;0;0;0;0;0;The quick brown fox jumps over a lazy dog.
775c1221-b51f-4211-88ab-f437d4b7ac92;618;RFDevice #204;49,7678418218352;6,62449899710007;0;0;0;0;IdealSDR;Unknown;91;12;0;0;0;0;0;0;Vom Ödipuskomplex maßlos gequält, übt Wilfried zyklisches Jodeln.
e16625e3-9358-43db-add0-ab7af8b2a98e;-274;RFDevice #205;49,7898408009734;6,65913598637536;0;0;0;0;HackRF;OmniDirectional;100;21;0;0;0;0;0;0;Vom Ödipuskomplex maßlos gequält, übt Wilfried zyklisches Jodeln.
4c6570ea-961a-439a-9845-f024ba0db2cf;127;RFDevice #206;49,7787656701182;6,62854717197774;0;0;0;0;HackRF;OmniDirectional;101;63;0;0;0;0;0;0;Falsches Üben von Xylophonmusik quält jeden größeren Zwerg.
859cb31f-5f51-4cad-99c1-16911e2cf7cb;610;RFDevice #207;49,7461691524926;6,66403439773914;0;0;0;0;HackRF;Unknown;103;67;0;0;0;0;0;0;The quick brown fox jumps over a lazy dog.
d997e55e-73f7-447f-a1a0-c128c8a93ee5;-159;RFDevice #208;49,7530683394414;6,66008453543781;0;0;0;0;HackRF;Unknown;102;11;0;0;0;0;0;0;Franz jagt im komplett verwahrlosten Taxi quer durch Bayern.
e0efd255-a28d-47a4-9c8e-3cba6cbf2155;59;RFDevice #209;49,7697969202621;6,65744059637549;0;0;0;0;TwinRx;OmniDirectional;86;44;0;0;0;0;0;0;Vom Ödipuskomplex maßlos gequält, übt Wilfried zyklisches Jodeln.
e33e4841-d71b-4847-b7c2-cb568640a0f3;866;RFDevice #210;49,7688570375054;6,63167454894724;0;0;0;0;IdealSDR;OmniDirectional;101;33;0;0;0;0;0;0;Franz jagt im komplett verwahrlosten Taxi quer durch Bayern.
f98bfbbb-1ccb-4ba7-add8-ca9ee5bd7b60;372;RFDevice #211;49,7602805452114;6,6285539308185;0;0;0;0;TwinRx;OmniDirectional;99;55;0;0;0;0;0;0;The quick brown fox jumps over a lazy dog.
e8e973aa-d5ac-4774-99b7-3fc8a2318150;-865;RFDevice #212;49,7736656207812;6,66471811998869;0;0;0;0;IdealSDR;Unknown;100;74;0;0;0;0;0;0;Vom Ödipuskomplex maßlos gequält, übt Wilfried zyklisches Jodeln.
3a43e53d-4464-455b-ae25-979bd6c355aa;286;RFDevice #213;49,7503982261402;6,66272303077999;0;0;0;0;TwinRx;Unknown;85;45;0;0;0;0;0;0;Vom Ödipuskomplex maßlos gequält, übt Wilfried zyklisches Jodeln.
0e0baf13-e29f-4492-9600-7051306b685e;42;RFDevice #214;49,7621753973588;6,6339546033527;0;0;0;0;HackRF;Unknown;100;19;0;0;0;0;0;0;Vom Ödipuskomplex maßlos gequält, übt Wilfried zyklisches Jodeln.
b2c59d42-61d3-4d09-8dcc-ee42a7eeadd4;631;RFDevice #215;49,7903265326582;6,64914910634488;0;0;0;0;HackRF;Unknown;94;67;0;0;0;0;0;0;Falsches Üben von Xylophonmusik quält jeden größeren Zwerg.
7ba7d8b3-6bff-488a-9226-e40fac3b83ef;687;RFDevice #216;49,7657341132823;6,64842561699391;0;0;0;0;Unknown;OmniDirectional;92;63;0;0;0;0;0;0;Franz jagt im komplett verwahrlosten Taxi quer durch Bayern.
7e7aedec-89c3-4130-9df6-f80482ac718d;92;RFDevice #217;49,7776974101092;6,63527587171438;0;0;0;0;IdealSDR;Unknown;101;13;0;0;0;0;0;0;Vom Ödipuskomplex maßlos gequält, übt Wilfried zyklisches Jodeln.
53398e0e-96b7-4e0a-9de9-be21f475086e;567;RFDevice #218;49,7728687995796;6,61568552451487;0;0;0;0;IdealSDR;OmniDirectional;88;70;0;0;0;0;0;0;The quick brown fox jumps over a lazy dog.
cefe5c2c-c5ee-43a4-bed7-3060a5b6edaa;-132;RFDevice #219;49,7648747395904;6,62992408548958;0;0;0;0;Unknown;OmniDirectional;95;16;0;0;0;0;0;0;Franz jagt im komplett verwahrlosten Taxi quer durch Bayern.
95732182-eaa7-430f-8fd8-e9692e8e3dd3;-440;RFDevice #220;49,7531192958247;6,64861278598612;0;0;0;0;TwinRx;OmniDirectional;98;54;0;0;0;0;0;0;Franz jagt im komplett verwahrlosten Taxi quer durch Bayern.
3bd4ae37-bc8b-4298-9c4a-860e1512879c;147;RFDevice #221;49,7574411914131;6,66086746680139;0;0;0;0;Unknown;OmniDirectional;85;62;0;0;0;0;0;0;Falsches Üben von Xylophonmusik quält jeden größeren Zwerg.
31a57f29-3697-46fe-98ab-57707a47b46b;693;RFDevice #222;49,7465564060818;6,64575554674308;0;0;0;0;IdealSDR;OmniDirectional;101;41;0;0;0;0;0;0;Vom Ödipuskomplex maßlos gequält, übt Wilfried zyklisches Jodeln.
2ef266d2-53c1-4652-9053-520f8319b4fc;92;RFDevice #223;49,7640314002697;6,63394791722495;0;0;0;0;TwinRx;OmniDirectional;100;12;0;0;0;0;0;0;Franz jagt im komplett verwahrlosten Taxi quer durch Bayern.
f343e85e-367e-4e7f-a36d-c7e98cac7117;114;RFDevice #224;49,757960333038;6,6553011079764;0;0;0;0;TwinRx;OmniDirectional;95;31;0;0;0;0;0;0;Franz jagt im komplett verwahrlosten Taxi quer durch Bayern.
5beb0877-fed5-4b1d-995f-fecff9fd2beb;822;RFDevice #225;49,7889955393564;6,63709357573064;0;0;0;0;IdealSDR;OmniDirectional;103;75;0;0;0;0;0;0;The quick brown fox jumps over a lazy dog.
a8c6a031-feb4-4e92-9ea9-a866be9ea59f;279;RFDevice #226;49,7606023281507;6,62191065813518;0;0;0;0;IdealSDR;Unknown;85;57;0;0;0;0;0;0;The quick brown fox jumps over a lazy dog.
36e07f8e-8ee1-4253-b6fa-ecaec2be5de4;397;RFDevice #227;49,7458545090722;6,61492472943162;0;0;0;0;Unknown;OmniDirectional;103;14;0;0;0;0;0;0;Falsches Üben von Xylophonmusik quält jeden größeren Zwerg.
7e46a1f5-aa97-403b-b83a-a57b2eeae594;-583;RFDevice #228;49,7901496884245;6,63391477797377;0;0;0;0;IdealSDR;OmniDirectional;85;69;0;0;0;0;0;0;The quick brown fox jumps over a lazy dog.
5fa93d78-4a01-4362-a982-bfb76189bdfd;430;RFDevice #229;49,7720316109228;6,62192752541147;0;0;0;0;TwinRx;OmniDirectional;92;38;0;0;0;0;0;0;Vom Ödipuskomplex maßlos gequält, übt Wilfried zyklisches Jodeln.
bab8042e-61b0-4e53-b2c1-9c2d3c97d4f7;-126;RFDevice #230;49,7949017181847;6,6176985384468;0;0;0;0;Unknown;Unknown;103;18;0;0;0;0;0;0;Vom Ödipuskomplex maßlos gequält, übt Wilfried zyklisches Jodeln.
519e51a2-4482-4ba7-8c57-5214db2fdb07;132;RFDevice #231;49,7619024785402;6,61511011638465;0;0;0;0;IdealSDR;Unknown;91;63;0;0;0;0;0;0;Falsches Üben von Xylophonmusik quält jeden größeren Zwerg.
90ad835a-2c6f-4d01-8b97-8f3b4289b667;610;RFDevice #232;49,7776451296645;6,65974397915417;0;0;0;0;HackRF;Unknown;101;20;0;0;0;0;0;0;Vom Ödipuskomplex maßlos gequält, übt Wilfried zyklisches Jodeln.
1404eb08-5ecc-46aa-bc05-4c8ed7e53241;-95;RFDevice #233;49,7853338242085;6,63339803049979;0;0;0;0;HackRF;Unknown;86;18;0;0;0;0;0;0;The quick brown fox jumps over a lazy dog.
c0f66c65-c540-4a0e-870d-2bceaa680bc5;206;RFDevice #234;49,7642599910442;6,64209076912719;0;0;0;0;HackRF;Unknown;90;21;0;0;0;0;0;0;The quick brown fox jumps over a lazy dog.
8fd01827-1620-4516-bde3-b593ca257341;551;RFDevice #235;49,7883968217821;6,64216044295228;0;0;0;0;Unknown;OmniDirectional;99;68;0;0;0;0;0;0;The quick brown fox jumps over a lazy dog.
6d05c51e-3fbc-4d99-a43f-a602720338aa;532;RFDevice #236;49,7540000845575;6,65460618440756;0;0;0;0;TwinRx;OmniDirectional;85;15;0;0;0;0;0;0;Vom Ödipuskomplex maßlos gequält, übt Wilfried zyklisches Jodeln.
96b30e03-9815-4b9c-836c-2e1ef92a5c3a;668;RFDevice #237;49,7685401238233;6,63090966482237;0;0;0;0;Unknown;Unknown;99;53;0;0;0;0;0;0;The quick brown fox jumps over a lazy dog.
9a0ca13a-0c6e-496b-996c-18c3c97104c4;-580;RFDevice #238;49,7781846694657;6,64155401831113;0;0;0;0;IdealSDR;Unknown;93;15;0;0;0;0;0;0;Vom Ödipuskomplex maßlos gequält, übt Wilfried zyklisches Jodeln.
67e76286-80e9-4de7-b714-e9031d7f8b1f;-39;RFDevice #239;49,7771700554066;6,6443284450493;0;0;0;0;TwinRx;OmniDirectional;90;48;0;0;0;0;0;0;Vom Ödipuskomplex maßlos gequält, übt Wilfried zyklisches Jodeln.
88d11967-1cd9-40ce-b62d-767f7504ec49;923;RFDevice #240;49,7944968901194;6,64520277890167;0;0;0;0;TwinRx;OmniDirectional;93;72;0;0;0;0;0;0;Vom Ödipuskomplex maßlos gequält, übt Wilfried zyklisches Jodeln.
ec086291-a259-4ea5-b695-ca4210bedbc0;-408;RFDevice #241;49,7919246590769;6,63959384797136;0;0;0;0;HackRF;Unknown;91;57;0;0;0;0;0;0;Franz jagt im komplett verwahrlosten Taxi quer durch Bayern.
628f277d-0d5b-41af-8814-7b1850160554;-528;RFDevice #242;49,7486399614124;6,64963315980971;0;0;0;0;HackRF;OmniDirectional;99;52;0;0;0;0;0;0;The quick brown fox jumps over a lazy dog.
213402aa-f6be-478c-831d-9c6c0a4e0af5;-821;RFDevice #243;49,7595280121934;6,62654333916346;0;0;0;0;Unknown;OmniDirectional;92;33;0;0;0;0;0;0;Vom Ödipuskomplex maßlos gequält, übt Wilfried zyklisches Jodeln.
78eed7c7-1dac-43d9-aee1-ec4e18fb80c1;824;RFDevice #244;49,774518120451;6,65860523243849;0;0;0;0;TwinRx;OmniDirectional;102;23;0;0;0;0;0;0;Falsches Üben von Xylophonmusik quält jeden größeren Zwerg.
e0e1d515-a298-4695-bfea-cd02eae4fc2f;520;RFDevice #245;49,7939927901457;6,65645008189452;0;0;0;0;Unknown;Unknown;98;47;0;0;0;0;0;0;Franz jagt im komplett verwahrlosten Taxi quer durch Bayern.
4ab701e6-c7c9-4767-b7a5-75248f3f6144;902;RFDevice #246;49,7734030935202;6,63723009614159;0;0;0;0;IdealSDR;Unknown;88;48;0;0;0;0;0;0;The quick brown fox jumps over a lazy dog.
bca0dc50-4010-4294-874b-aeeeeb035eb7;-246;RFDevice #247;49,759304121804;6,64662436569898;0;0;0;0;IdealSDR;OmniDirectional;86;17;0;0;0;0;0;0;Falsches Üben von Xylophonmusik quält jeden größeren Zwerg.
e131fa1e-b18c-4727-a067-ba4ccecf0a2b;191;RFDevice #248;49,7909236263087;6,64047766506242;0;0;0;0;HackRF;OmniDirectional;86;72;0;0;0;0;0;0;The quick brown fox jumps over a lazy dog.
6f3bee66-4c8a-40a5-8043-f0bc0a01f554;751;RFDevice #249;49,7899281520693;6,64621777445381;0;0;0;0;IdealSDR;Unknown;100;36;0;0;0;0;0;0;The quick brown fox jumps over a lazy dog.
aed98530-3470-4538-9704-98dd93b59c63;488;RFDevice #250;49,7494394653818;6,65823707254535;0;0;0;0;Unknown;Unknown;87;11;0;0;0;0;0;0;Vom Ödipuskomplex maßlos gequält, übt Wilfried zyklisches Jodeln.
68933f34-79e7-4975-962d-8f5d58a2d0da;-948;RFDevice #251;49,7764837474564;6,62580953145684;0;0;0;0;Unknown;OmniDirectional;88;54;0;0;0;0;0;0;Vom Ödipuskomplex maßlos gequält, übt Wilfried zyklisches Jodeln.
fdf5e285-c72e-43d9-9fce-aeed4093f53f;727;RFDevice #252;49,7920310465227;6,627737310607;0;0;0;0;IdealSDR;OmniDirectional;87;58;0;0;0;0;0;0;Falsches Üben von Xylophonmusik quält jeden größeren Zwerg.
28432f25-e85b-400e-adc8-f57a638e1789;345;RFDevice #253;49,750901278958;6,63179863119596;0;0;0;0;TwinRx;Unknown;91;36;0;0;0;0;0;0;Vom Ödipuskomplex maßlos gequält, übt Wilfried zyklisches Jodeln.
814b6621-ac56-4529-a8de-8e624224b8c9;789;RFDevice #254;49,7555425762103;6,62812983704192;0;0;0;0;IdealSDR;OmniDirectional;89;76;0;0;0;0;0;0;The quick brown fox jumps over a lazy dog.
7df774ee-1534-4dd6-87db-a078b7a709ab;766;RFDevice #255;49,7835608237457;6,6331305762862;0;0;0;0;Unknown;Unknown;85;15;0;0;0;0;0;0;Vom Ödipuskomplex maßlos gequält, übt Wilfried zyklisches Jodeln.
6c951ec5-4f59-4797-bc1a-bd412c6ccecd;-481;RFDevice #256;49,7925608374255;6,6322088566015;0;0;0;0;Unknown;OmniDirectional;91;29;0;0;0;0;0;0;Vom Ödipuskomplex maßlos gequält, übt Wilfried zyklisches Jodeln.
ec4b5f7e-bfa2-428a-b871-d0c8e8c05ea6;-234;RFDevice #257;49,7456283167794;6,62593198733694;0;0;0;0;Unknown;Unknown;92;24;0;0;0;0;0;0;Vom Ödipuskomplex maßlos gequält, übt Wilfried zyklisches Jodeln.
5e561e2a-7928-481c-b578-713640529b47;-505;RFDevice #258;49,7750626571471;6,66332108800002;0;0;0;0;IdealSDR;Unknown;95;43;0;0;0;0;0;0;Vom Ödipuskomplex maßlos gequält, übt Wilfried zyklisches Jodeln.
94fc10cd-3453-4408-8efc-ad48cedb326f;971;RFDevice #259;49,7844694651469;6,62243708670732;0;0;0;0;HackRF;Unknown;102;79;0;0;0;0;0;0;Vom Ödipuskomplex maßlos gequält, übt Wilfried zyklisches Jodeln.
15259852-b8b9-40f0-863f-4d143c2e06d7;-924;RFDevice #260;49,7774864946032;6,63518482652748;0;0;0;0;TwinRx;Unknown;93;19;0;0;0;0;0;0;Vom Ödipuskomplex maßlos gequält, übt Wilfried zyklisches Jodeln.
8648314b-bd27-4a52-a1c8-408d03a803f4;835;RFDevice #261;49,7787582069182;6,65037802026639;0;0;0;0;IdealSDR;Unknown;87;58;0;0;0;0;0;0;Vom Ödipuskomplex maßlos gequält, übt Wilfried zyklisches Jodeln.
4c30fc44-85ff-4946-b1c8-2f4786c240e3;104;RFDevice #262;49,7795960703648;6,6441521909714;0;0;0;0;HackRF;OmniDirectional;85;64;0;0;0;0;0;0;Vom Ödipuskomplex maßlos gequält, übt Wilfried zyklisches Jodeln.
3e92a048-faa0-4174-b631-8100b7746af1;-59;RFDevice #263;49,7802489781305;6,66290157018378;0;0;0;0;TwinRx;OmniDirectional;103;67;0;0;0;0;0;0;Vom Ödipuskomplex maßlos gequält, übt Wilfried zyklisches Jodeln.
e9c5ed82-18be-4049-955d-19a81aafe119;-974;RFDevice #264;49,7740295490473;6,65505248121701;0;0;0;0;IdealSDR;Unknown;97;57;0;0;0;0;0;0;Falsches Üben von Xylophonmusik quält jeden größeren Zwerg.
16aeb0ac-0b9a-432f-b8ce-73fd98f6e231;-73;RFDevice #265;49,7665757605994;6,62210622458365;0;0;0;0;IdealSDR;Unknown;90;55;0;0;0;0;0;0;Falsches Üben von Xylophonmusik quält jeden größeren Zwerg.
713114f7-4a92-4b6b-aafd-cb98f3a466bb;-823;RFDevice #266;49,7768622626786;6,65646078763379;0;0;0;0;IdealSDR;OmniDirectional;99;51;0;0;0;0;0;0;Franz jagt im komplett verwahrlosten Taxi quer durch Bayern.
79565153-7ef9-4d83-b555-d586d4d14392;721;RFDevice #267;49,7795947309832;6,62107880909991;0;0;0;0;HackRF;OmniDirectional;93;34;0;0;0;0;0;0;Franz jagt im komplett verwahrlosten Taxi quer durch Bayern.
799f4a96-ba8a-43b4-8db4-619a2bc1927f;704;RFDevice #268;49,7549778573116;6,62454275035525;0;0;0;0;HackRF;OmniDirectional;96;49;0;0;0;0;0;0;Falsches Üben von Xylophonmusik quält jeden größeren Zwerg.
5c635a8b-27f0-4010-85af-22c77e23897d;-995;RFDevice #269;49,7836848701152;6,6555900109447;0;0;0;0;TwinRx;Unknown;95;72;0;0;0;0;0;0;Franz jagt im komplett verwahrlosten Taxi quer durch Bayern.
470ce3f7-f78a-431a-b653-53783a40c452;-917;RFDevice #270;49,7493861670481;6,64616892632864;0;0;0;0;TwinRx;OmniDirectional;99;26;0;0;0;0;0;0;The quick brown fox jumps over a lazy dog.
1819adde-41fc-4257-b8be-19688854d3fe;961;RFDevice #271;49,7841063723703;6,62891178599988;0;0;0;0;HackRF;OmniDirectional;92;34;0;0;0;0;0;0;Franz jagt im komplett verwahrlosten Taxi quer durch Bayern.
72b026fa-7f76-4f70-b382-4e687394ab97;-846;RFDevice #272;49,751771773177;6,63469277817057;0;0;0;0;TwinRx;OmniDirectional;89;50;0;0;0;0;0;0;Vom Ödipuskomplex maßlos gequält, übt Wilfried zyklisches Jodeln.
65577030-48a3-4f66-8402-74a4e19d8522;-873;RFDevice #273;49,790174987453;6,61968205802142;0;0;0;0;TwinRx;Unknown;104;21;0;0;0;0;0;0;The quick brown fox jumps over a lazy dog.
1875fd69-ec22-495d-bb22-1b3d82ac7c85;581;RFDevice #274;49,7913713067841;6,62793864832178;0;0;0;0;HackRF;Unknown;100;76;0;0;0;0;0;0;Franz jagt im komplett verwahrlosten Taxi quer durch Bayern.
a1acbf79-8a74-44eb-89de-1a8d8ad43dd2;907;RFDevice #275;49,7900776309724;6,63694164351432;0;0;0;0;TwinRx;OmniDirectional;90;40;0;0;0;0;0;0;Vom Ödipuskomplex maßlos gequält, übt Wilfried zyklisches Jodeln.
6d42a765-cefb-4b56-bc73-91f95a0a9c54;-171;RFDevice #276;49,783678949069;6,64265564581517;0;0;0;0;TwinRx;OmniDirectional;90;19;0;0;0;0;0;0;Falsches Üben von Xylophonmusik quält jeden größeren Zwerg.
8e291a5f-bb83-47a9-9ccc-fdb5c454c83d;3;RFDevice #277;49,7498300616972;6,64019371284195;0;0;0;0;IdealSDR;Unknown;99;37;0;0;0;0;0;0;Franz jagt im komplett verwahrlosten Taxi quer durch Bayern.
eebca837-9944-4981-9a4e-51d977efa331;221;RFDevice #278;49,7930341023332;6,63897548207514;0;0;0;0;TwinRx;OmniDirectional;104;28;0;0;0;0;0;0;The quick brown fox jumps over a lazy dog.
59342dc1-f1fc-4248-bef7-bfa4767dc3c7;-639;RFDevice #279;49,758412918347;6,64906931642414;0;0;0;0;IdealSDR;Unknown;85;28;0;0;0;0;0;0;Falsches Üben von Xylophonmusik quält jeden größeren Zwerg.
777ee7ff-8623-42a9-ad98-42a6c266dbe8;-95;RFDevice #280;49,768962072601;6,61988564776731;0;0;0;0;IdealSDR;OmniDirectional;93;23;0;0;0;0;0;0;Vom Ödipuskomplex maßlos gequält, übt Wilfried zyklisches Jodeln.
61438994-a9c4-46f8-bbc5-508103517cea;577;RFDevice #281;49,768027249487;6,65923694153295;0;0;0;0;TwinRx;OmniDirectional;100;46;0;0;0;0;0;0;Franz jagt im komplett verwahrlosten Taxi quer durch Bayern.
10ed16c5-976e-4c16-88f9-b0595e774ad7;-12;RFDevice #282;49,76637591491;6,66078358450955;0;0;0;0;HackRF;Unknown;102;45;0;0;0;0;0;0;The quick brown fox jumps over a lazy dog.
9352c72c-d16d-4e03-888e-836e518f904a;14;RFDevice #283;49,7581015047999;6,6427550732312;0;0;0;0;Unknown;Unknown;104;11;0;0;0;0;0;0;The quick brown fox jumps over a lazy dog.
bdf85d06-3dfe-4ba3-84b8-ac0b2791ed5d;646;RFDevice #284;49,7821747738197;6,65098759361603;0;0;0;0;IdealSDR;Unknown;90;53;0;0;0;0;0;0;Franz jagt im komplett verwahrlosten Taxi quer durch Bayern.
b6d38fbd-8e58-4657-8d48-905447f7de11;524;RFDevice #285;49,7927622895998;6,65413416109254;0;0;0;0;TwinRx;OmniDirectional;96;12;0;0;0;0;0;0;The quick brown fox jumps over a lazy dog.
e22cb870-4b3a-4557-ad17-842b153277a6;491;RFDevice #286;49,7680747495228;6,64918970262608;0;0;0;0;HackRF;OmniDirectional;103;77;0;0;0;0;0;0;Vom Ödipuskomplex maßlos gequält, übt Wilfried zyklisches Jodeln.
731f4cdb-9e3d-4a9c-95ea-ab68046431f4;929;RFDevice #287;49,7777838822229;6,64625025071974;0;0;0;0;IdealSDR;Unknown;91;77;0;0;0;0;0;0;Falsches Üben von Xylophonmusik quält jeden größeren Zwerg.
7beb2ea2-3356-4d12-9cb9-4f36ce27e047;-126;RFDevice #288;49,7671318664173;6,65880357797681;0;0;0;0;TwinRx;OmniDirectional;92;52;0;0;0;0;0;0;Franz jagt im komplett verwahrlosten Taxi quer durch Bayern.
0423f2c3-b3ff-4dea-adb0-2f46317f1a3e;604;RFDevice #289;49,782035777511;6,64272919049628;0;0;0;0;Unknown;OmniDirectional;101;36;0;0;0;0;0;0;Falsches Üben von Xylophonmusik quält jeden größeren Zwerg.
3fcd7b16-bf6e-4a15-923a-6b183249d8c3;-554;RFDevice #290;49,7528142693576;6,62147082223639;0;0;0;0;IdealSDR;OmniDirectional;97;32;0;0;0;0;0;0;Falsches Üben von Xylophonmusik quält jeden größeren Zwerg.
a161fffc-6e15-4bcb-957b-e043fff3a03e;553;RFDevice #291;49,7522978973696;6,62415726129639;0;0;0;0;Unknown;Unknown;94;32;0;0;0;0;0;0;The quick brown fox jumps over a lazy dog.
fc3b2d23-abe6-48d3-a5ee-3047d2d55e6f;971;RFDevice #292;49,7927056910081;6,62630049936315;0;0;0;0;TwinRx;Unknown;94;35;0;0;0;0;0;0;The quick brown fox jumps over a lazy dog.
3e6deaa5-217a-48b4-8f07-3bf3b10680aa;695;RFDevice #293;49,7682109961482;6,64344252307608;0;0;0;0;HackRF;OmniDirectional;86;44;0;0;0;0;0;0;Franz jagt im komplett verwahrlosten Taxi quer durch Bayern.
3db8b505-641c-4c15-aa4c-b9c4063f81e8;-458;RFDevice #294;49,7792044847053;6,66123612802547;0;0;0;0;TwinRx;OmniDirectional;101;50;0;0;0;0;0;0;Falsches Üben von Xylophonmusik quält jeden größeren Zwerg.
84069f57-839f-495d-a117-660671b9b0f1;-771;RFDevice #295;49,7454408557011;6,65280236734222;0;0;0;0;Unknown;OmniDirectional;97;51;0;0;0;0;0;0;The quick brown fox jumps over a lazy dog.
a554650a-f8d3-413f-8d72-61805f8a9479;-168;RFDevice #296;49,7507780161568;6,65883435278625;0;0;0;0;IdealSDR;Unknown;99;29;0;0;0;0;0;0;Vom Ödipuskomplex maßlos gequält, übt Wilfried zyklisches Jodeln.
6a572616-2cb1-4a4d-9270-a5cea503e580;579;RFDevice #297;49,7829447357714;6,62849458279963;0;0;0;0;Unknown;OmniDirectional;103;44;0;0;0;0;0;0;Vom Ödipuskomplex maßlos gequält, übt Wilfried zyklisches Jodeln.
d244bed6-235c-4a26-a812-8c3e2f705afd;277;RFDevice #298;49,7485117118909;6,6501407057468;0;0;0;0;Unknown;Unknown;96;28;0;0;0;0;0;0;Franz jagt im komplett verwahrlosten Taxi quer durch Bayern.
9e8f89a2-1aa6-4446-a956-612d048580bf;-256;RFDevice #299;49,7670520638306;6,64123195266888;0;0;0;0;TwinRx;Unknown;93;24;0;0;0;0;0;0;Franz jagt im komplett verwahrlosten Taxi quer durch Bayern.
c92aeadb-4c2a-4960-b157-345106ee9303;728;RFDevice #300;49,7571655444247;6,66405119337344;0;0;0;0;HackRF;OmniDirectional;92;45;0;0;0;0;0;0;Vom Ödipuskomplex maßlos gequält, übt Wilfried zyklisches Jodeln.
3f99e81e-dcde-4a60-ba32-888e84a68913;-193;RFDevice #301;49,7553386431556;6,66142489234997;0;0;0;0;HackRF;Unknown;100;60;0;0;0;0;0;0;Franz jagt im komplett verwahrlosten Taxi quer durch Bayern.
