PrimaryKey;Id;Name;Latitude;Longitude;Altitude;Roll;Pitch;Yaw;RxTxType;AntennaType;Gain;CenterFrequency;Bandwith;SignalToNoiseRatio;XPos;YPos;ZPos;StartTime;Remark
5a9df18c-ddbb-44e1-a475-551abbc486ba;86;Transmitter #1;49,7560580863058;6,6442662358445;0;0;0;0;IdealSDR;Unknown;0;103;24;0;0;0;0;0;Franz jagt im komplett verwahrlosten Taxi quer durch Bayern.
0cb19163-f3cb-41d3-a2e5-361534beda41;-275;Transmitter #2;49,7844890132119;6,6605899706487;0;0;0;0;TwinRx;Unknown;0;89;66;0;0;0;0;0;The quick brown fox jumps over a lazy dog.
b10282c9-9673-4098-b153-c62c64374000;629;Transmitter #3;49,774056297074;6,63550767799644;0;0;0;0;TwinRx;Unknown;0;90;59;0;0;0;0;0;Falsches Üben von Xylophonmusik quält jeden größeren Zwerg.
edd299ef-cdb3-4ab0-a497-180775c04657;849;Transmitter #4;49,7844303237545;6,65183046445815;0;0;0;0;HackRF;OmniDirectional;0;88;65;0;0;0;0;0;Franz jagt im komplett verwahrlosten Taxi quer durch Bayern.
ff3bd30f-3b2c-496d-a12a-90dbba4e6a7b;-268;Transmitter #5;49,7569268755758;6,61959933846253;0;0;0;0;IdealSDR;Unknown;0;88;20;0;0;0;0;0;Falsches Üben von Xylophonmusik quält jeden größeren Zwerg.
b6a15736-ebd3-43bf-aeb8-2ab697172b0c;-213;Transmitter #6;49,7899046688404;6,62729491259325;0;0;0;0;IdealSDR;Unknown;0;87;72;0;0;0;0;0;Franz jagt im komplett verwahrlosten Taxi quer durch Bayern.
58eb0a2f-8563-4035-8f3b-9eab3bc0ca50;492;Transmitter #7;49,7631185723408;6,63780626150691;0;0;0;0;HackRF;OmniDirectional;0;90;11;0;0;0;0;0;The quick brown fox jumps over a lazy dog.
0f99f219-38d4-4699-9fec-03d55f57de31;19;Transmitter #8;49,7837410099141;6,62203617885818;0;0;0;0;IdealSDR;OmniDirectional;0;103;65;0;0;0;0;0;Franz jagt im komplett verwahrlosten Taxi quer durch Bayern.
78af39aa-06c7-45d1-8df3-b05efcf1727f;973;Transmitter #9;49,7793805708658;6,62626998520762;0;0;0;0;HackRF;OmniDirectional;0;98;63;0;0;0;0;0;Vom Ödipuskomplex maßlos gequält, übt Wilfried zyklisches Jodeln.
c48ca0e5-3e2a-442a-b184-87c47823d30f;-153;Transmitter #10;49,766596235214;6,63183046233474;0;0;0;0;Unknown;OmniDirectional;0;98;18;0;0;0;0;0;Falsches Üben von Xylophonmusik quält jeden größeren Zwerg.
cf4f522a-674d-4b43-8d23-80b4f0392aff;773;Transmitter #11;49,7701515663853;6,64071194125852;0;0;0;0;IdealSDR;Unknown;0;93;24;0;0;0;0;0;Franz jagt im komplett verwahrlosten Taxi quer durch Bayern.
2630d55e-feeb-4f46-8aa0-a0ce81172956;-593;Transmitter #12;49,7868082494524;6,64479816799755;0;0;0;0;Unknown;OmniDirectional;0;85;67;0;0;0;0;0;The quick brown fox jumps over a lazy dog.
941cd0ac-4d1c-467b-acc1-ffebb6b3cc9a;-820;Transmitter #13;49,7482810021481;6,61667051713773;0;0;0;0;IdealSDR;Unknown;0;94;16;0;0;0;0;0;Franz jagt im komplett verwahrlosten Taxi quer durch Bayern.
bfcaeef6-ab2f-4b38-93ed-d328c39c3b53;179;Transmitter #14;49,7857064305616;6,66102340200512;0;0;0;0;TwinRx;Unknown;0;89;26;0;0;0;0;0;Falsches Üben von Xylophonmusik quält jeden größeren Zwerg.
5fd0172a-142d-4076-a82d-dbf5fbdef3d6;301;Transmitter #15;49,7636166185315;6,6266876647328;0;0;0;0;TwinRx;OmniDirectional;0;99;43;0;0;0;0;0;Vom Ödipuskomplex maßlos gequält, übt Wilfried zyklisches Jodeln.
fb74ee5b-dc04-4661-adc1-3912ab8506ab;-63;Transmitter #16;49,7527411289171;6,6249039562257;0;0;0;0;HackRF;OmniDirectional;0;104;54;0;0;0;0;0;The quick brown fox jumps over a lazy dog.
588537f4-6e03-458e-a698-5e8c72b21f48;204;Transmitter #17;49,7897614060499;6,64969576121773;0;0;0;0;Unknown;Unknown;0;86;70;0;0;0;0;0;The quick brown fox jumps over a lazy dog.
85db2c36-d9b9-467b-9b1b-243b3e61d628;-199;Transmitter #18;49,7685177473316;6,63800099030058;0;0;0;0;Unknown;Unknown;0;97;19;0;0;0;0;0;Falsches Üben von Xylophonmusik quält jeden größeren Zwerg.
7282c542-af9d-4502-aa46-de5a50fc25ca;183;Transmitter #19;49,783881043949;6,62095478450007;0;0;0;0;TwinRx;Unknown;0;87;11;0;0;0;0;0;The quick brown fox jumps over a lazy dog.
a2d85092-db13-4ecd-9897-4970c7885339;163;Transmitter #20;49,770273754254;6,64269314810307;0;0;0;0;Unknown;OmniDirectional;0;100;77;0;0;0;0;0;Vom Ödipuskomplex maßlos gequält, übt Wilfried zyklisches Jodeln.
c71cbc11-953c-45d6-8b60-16942ee939fe;-652;Transmitter #21;49,771680807879;6,66475251366154;0;0;0;0;IdealSDR;Unknown;0;90;22;0;0;0;0;0;Vom Ödipuskomplex maßlos gequält, übt Wilfried zyklisches Jodeln.
107b352b-8c65-4e17-abd5-b98422bf7c47;10;Transmitter #22;49,7873380221944;6,6284453878965;0;0;0;0;Unknown;OmniDirectional;0;96;10;0;0;0;0;0;Falsches Üben von Xylophonmusik quält jeden größeren Zwerg.
de9d5c30-dbe0-4a7b-a5db-cbf4184f855f;-973;Transmitter #23;49,7572471593884;6,6513643464966;0;0;0;0;HackRF;Unknown;0;104;52;0;0;0;0;0;The quick brown fox jumps over a lazy dog.
063e8c3f-eb4b-492f-be9c-6686ef690568;724;Transmitter #24;49,763102091703;6,63441312125638;0;0;0;0;IdealSDR;Unknown;0;86;17;0;0;0;0;0;Vom Ödipuskomplex maßlos gequält, übt Wilfried zyklisches Jodeln.
24661334-12ef-452e-ba0d-afaca77e2e00;6;Transmitter #25;49,7886782828311;6,65159885566304;0;0;0;0;IdealSDR;Unknown;0;86;39;0;0;0;0;0;The quick brown fox jumps over a lazy dog.
a1887943-6b9d-432c-b846-d281e218db31;174;Transmitter #26;49,7735056037769;6,6224337270077;0;0;0;0;Unknown;Unknown;0;86;13;0;0;0;0;0;Franz jagt im komplett verwahrlosten Taxi quer durch Bayern.
2aa007ca-73ad-48fc-83f7-b16e15471776;-29;Transmitter #27;49,7803230886367;6,65283738660772;0;0;0;0;IdealSDR;OmniDirectional;0;97;60;0;0;0;0;0;Franz jagt im komplett verwahrlosten Taxi quer durch Bayern.
bbf5d219-9b56-4130-9300-773bb5078cd6;839;Transmitter #28;49,7726268309385;6,62479847705229;0;0;0;0;IdealSDR;Unknown;0;85;11;0;0;0;0;0;The quick brown fox jumps over a lazy dog.
3f223edc-048f-420e-b054-f15a24c38755;463;Transmitter #29;49,7775648354326;6,63793817925185;0;0;0;0;HackRF;Unknown;0;85;27;0;0;0;0;0;Falsches Üben von Xylophonmusik quält jeden größeren Zwerg.
ea3ee3b3-0841-4edf-82af-9e973af41b0a;637;Transmitter #30;49,7654935147098;6,6517921872633;0;0;0;0;HackRF;Unknown;0;98;50;0;0;0;0;0;Falsches Üben von Xylophonmusik quält jeden größeren Zwerg.
00847282-a538-4309-a893-6298aaece675;-404;Transmitter #31;49,7642242533797;6,64802530048803;0;0;0;0;Unknown;OmniDirectional;0;86;50;0;0;0;0;0;Falsches Üben von Xylophonmusik quält jeden größeren Zwerg.
a52b1458-0adf-4b99-9357-d05eb52a6d7f;-718;Transmitter #32;49,7722022458659;6,61894634664489;0;0;0;0;IdealSDR;Unknown;0;89;41;0;0;0;0;0;Vom Ödipuskomplex maßlos gequält, übt Wilfried zyklisches Jodeln.
2a98a25a-258d-4dc9-b976-952abc8d0300;77;Transmitter #33;49,7820331096211;6,62593753706489;0;0;0;0;IdealSDR;Unknown;0;97;22;0;0;0;0;0;The quick brown fox jumps over a lazy dog.
9c8eea0c-2792-444c-9b0b-477af036ceab;-90;Transmitter #34;49,7863234923501;6,62661545573124;0;0;0;0;TwinRx;Unknown;0;93;36;0;0;0;0;0;The quick brown fox jumps over a lazy dog.
4d0c403c-e268-4082-823c-94af5c4acf1a;941;Transmitter #35;49,7652577455337;6,65951164998105;0;0;0;0;HackRF;OmniDirectional;0;88;16;0;0;0;0;0;Vom Ödipuskomplex maßlos gequält, übt Wilfried zyklisches Jodeln.
654f4373-7105-46ea-a560-c47c509f734c;-881;Transmitter #36;49,7749931183172;6,62887941287792;0;0;0;0;HackRF;Unknown;0;88;14;0;0;0;0;0;Vom Ödipuskomplex maßlos gequält, übt Wilfried zyklisches Jodeln.
8af39d1e-8efb-423c-b64c-1728fb1d380a;897;Transmitter #37;49,7546338535978;6,65345278493769;0;0;0;0;IdealSDR;OmniDirectional;0;91;24;0;0;0;0;0;Vom Ödipuskomplex maßlos gequält, übt Wilfried zyklisches Jodeln.
e36906d3-95aa-4c71-9e37-f10bfe1461a4;-607;Transmitter #38;49,7547687261498;6,63399362944732;0;0;0;0;TwinRx;Unknown;0;103;78;0;0;0;0;0;Vom Ödipuskomplex maßlos gequält, übt Wilfried zyklisches Jodeln.
a055ce7b-9b1b-46aa-9436-472b9230ef65;-673;Transmitter #39;49,786127700312;6,61984043829615;0;0;0;0;HackRF;OmniDirectional;0;104;22;0;0;0;0;0;The quick brown fox jumps over a lazy dog.
43e60b35-f630-4e16-9a32-48e9ef6b517d;285;Transmitter #40;49,7725767271809;6,62370645665284;0;0;0;0;IdealSDR;OmniDirectional;0;102;48;0;0;0;0;0;The quick brown fox jumps over a lazy dog.
174bf25b-2098-4d09-b0be-c69747af09ee;506;Transmitter #41;49,777573682578;6,64956812071142;0;0;0;0;TwinRx;Unknown;0;90;68;0;0;0;0;0;Vom Ödipuskomplex maßlos gequält, übt Wilfried zyklisches Jodeln.
700cae0e-3999-4a3a-8097-532bf8973953;-607;Transmitter #42;49,7568313726134;6,6299554154604;0;0;0;0;IdealSDR;Unknown;0;96;70;0;0;0;0;0;Franz jagt im komplett verwahrlosten Taxi quer durch Bayern.
85d4ac9f-3930-47f4-9ac5-c8f16971106b;238;Transmitter #43;49,7730481544495;6,62160710925791;0;0;0;0;IdealSDR;OmniDirectional;0;96;27;0;0;0;0;0;Falsches Üben von Xylophonmusik quält jeden größeren Zwerg.
d4d26d37-c73c-4119-83b1-d8ee228a2018;-994;Transmitter #44;49,7663090722356;6,63739901048955;0;0;0;0;Unknown;OmniDirectional;0;88;31;0;0;0;0;0;The quick brown fox jumps over a lazy dog.
49e4cf67-8481-45d0-9552-95d60ef307a0;284;Transmitter #45;49,7503871734367;6,65271685060254;0;0;0;0;IdealSDR;OmniDirectional;0;90;15;0;0;0;0;0;Falsches Üben von Xylophonmusik quält jeden größeren Zwerg.
d8dad1dc-cb7e-47c6-8194-a318f092c6ee;961;Transmitter #46;49,7686847433413;6,6289639356403;0;0;0;0;IdealSDR;Unknown;0;104;48;0;0;0;0;0;Franz jagt im komplett verwahrlosten Taxi quer durch Bayern.
d15e3c12-eca2-47c6-bd87-083feff32e8b;372;Transmitter #47;49,7483179011252;6,63436543807605;0;0;0;0;Unknown;Unknown;0;93;24;0;0;0;0;0;Franz jagt im komplett verwahrlosten Taxi quer durch Bayern.
31888b09-3c24-4b0b-b240-a564d780a441;-224;Transmitter #48;49,780415138255;6,65033379704255;0;0;0;0;IdealSDR;Unknown;0;103;42;0;0;0;0;0;Franz jagt im komplett verwahrlosten Taxi quer durch Bayern.
cd558746-383d-4b4b-b821-925ddd87430e;840;Transmitter #49;49,7947309220296;6,64200138351056;0;0;0;0;TwinRx;Unknown;0;98;70;0;0;0;0;0;The quick brown fox jumps over a lazy dog.
7e948544-5667-4bb8-bfd0-8cce0937e857;-61;Transmitter #50;49,7578959445151;6,62162065401763;0;0;0;0;TwinRx;OmniDirectional;0;87;33;0;0;0;0;0;Franz jagt im komplett verwahrlosten Taxi quer durch Bayern.
ba81f12b-113d-47af-8412-bcb6b1a73510;738;Transmitter #51;49,7647492169349;6,62504121075167;0;0;0;0;IdealSDR;Unknown;0;95;49;0;0;0;0;0;Franz jagt im komplett verwahrlosten Taxi quer durch Bayern.
86aca02b-b7cf-4204-9244-8078966e77ba;784;Transmitter #52;49,7748873043799;6,65432256029203;0;0;0;0;TwinRx;Unknown;0;102;13;0;0;0;0;0;Franz jagt im komplett verwahrlosten Taxi quer durch Bayern.
78e1831f-e9f6-4fa5-bc8e-0534b5686da1;988;Transmitter #53;49,7592052691071;6,62422790348741;0;0;0;0;TwinRx;OmniDirectional;0;101;26;0;0;0;0;0;Franz jagt im komplett verwahrlosten Taxi quer durch Bayern.
3038857f-8c6d-4838-959d-553df8d6d74c;-623;Transmitter #54;49,7469406341998;6,63152542054738;0;0;0;0;HackRF;OmniDirectional;0;96;70;0;0;0;0;0;Franz jagt im komplett verwahrlosten Taxi quer durch Bayern.
d7fb3283-2bce-462a-8176-7b987a490335;-277;Transmitter #55;49,7805591876173;6,63269283109018;0;0;0;0;HackRF;Unknown;0;92;24;0;0;0;0;0;The quick brown fox jumps over a lazy dog.
656b95ea-c1b3-47fb-baa2-cbf1daa0a3b2;-160;Transmitter #56;49,7618941414569;6,65551480243253;0;0;0;0;IdealSDR;Unknown;0;91;66;0;0;0;0;0;Vom Ödipuskomplex maßlos gequält, übt Wilfried zyklisches Jodeln.
c4be8646-f63a-4ebc-9402-6b0c27561ca5;-610;Transmitter #57;49,7502998335865;6,64562176397812;0;0;0;0;IdealSDR;Unknown;0;98;48;0;0;0;0;0;Franz jagt im komplett verwahrlosten Taxi quer durch Bayern.
94f10e66-b3ba-4cab-b626-0ca5ca57fdbe;-705;Transmitter #58;49,7552542116395;6,66061971820934;0;0;0;0;Unknown;OmniDirectional;0;86;74;0;0;0;0;0;The quick brown fox jumps over a lazy dog.
7d07b1d4-6f99-480e-b013-027bef662595;457;Transmitter #59;49,772842679241;6,62422034601426;0;0;0;0;Unknown;Unknown;0;97;30;0;0;0;0;0;Vom Ödipuskomplex maßlos gequält, übt Wilfried zyklisches Jodeln.
473d6cc4-50ad-4243-8dce-d3d929679813;-854;Transmitter #60;49,7840152367055;6,62728820590656;0;0;0;0;IdealSDR;OmniDirectional;0;85;17;0;0;0;0;0;Falsches Üben von Xylophonmusik quält jeden größeren Zwerg.
15502f87-3c37-4056-8b2b-617321ae86d0;-552;Transmitter #61;49,7814302648908;6,63004258888324;0;0;0;0;IdealSDR;Unknown;0;101;29;0;0;0;0;0;Vom Ödipuskomplex maßlos gequält, übt Wilfried zyklisches Jodeln.
7b956e72-6974-4f15-8324-0832621c4c86;-694;Transmitter #62;49,7619415559739;6,62964558478908;0;0;0;0;TwinRx;OmniDirectional;0;93;26;0;0;0;0;0;The quick brown fox jumps over a lazy dog.
61559e45-03eb-4da1-8d10-37ae792d9712;-174;Transmitter #63;49,7713565625228;6,6401546103556;0;0;0;0;HackRF;OmniDirectional;0;104;17;0;0;0;0;0;Vom Ödipuskomplex maßlos gequält, übt Wilfried zyklisches Jodeln.
fe015dd2-1950-40b7-866c-e0b18d470a83;606;Transmitter #64;49,7948042569536;6,66271003033175;0;0;0;0;IdealSDR;OmniDirectional;0;93;79;0;0;0;0;0;Franz jagt im komplett verwahrlosten Taxi quer durch Bayern.
1bd80142-e1b9-440a-9a88-2f850a10f94d;-833;Transmitter #65;49,7477329064726;6,64225360219486;0;0;0;0;HackRF;Unknown;0;99;31;0;0;0;0;0;Falsches Üben von Xylophonmusik quält jeden größeren Zwerg.
e6ed3504-821f-4695-a149-ae2399f14917;-458;Transmitter #66;49,7701738549834;6,64968933423049;0;0;0;0;IdealSDR;OmniDirectional;0;100;22;0;0;0;0;0;Vom Ödipuskomplex maßlos gequält, übt Wilfried zyklisches Jodeln.
5e95ebdc-b3ec-4fdc-9d86-f7dcf55c94f5;63;Transmitter #67;49,7902106451401;6,65051649186798;0;0;0;0;TwinRx;Unknown;0;100;61;0;0;0;0;0;The quick brown fox jumps over a lazy dog.
9108edf6-4123-451d-9005-48778e4d1bf0;221;Transmitter #68;49,7813965601871;6,63461579451101;0;0;0;0;Unknown;Unknown;0;86;28;0;0;0;0;0;Vom Ödipuskomplex maßlos gequält, übt Wilfried zyklisches Jodeln.
d7c255e4-816f-4606-8517-eac0eee685c3;-325;Transmitter #69;49,7530443040546;6,63795309596614;0;0;0;0;HackRF;Unknown;0;100;51;0;0;0;0;0;Vom Ödipuskomplex maßlos gequält, übt Wilfried zyklisches Jodeln.
18682239-40f2-4d78-9d60-8dbd1a67b14d;-580;Transmitter #70;49,7757917309178;6,61850490787011;0;0;0;0;TwinRx;OmniDirectional;0;103;28;0;0;0;0;0;Franz jagt im komplett verwahrlosten Taxi quer durch Bayern.
7ecb2c0a-d0fd-4431-b57a-65932b6498ec;630;Transmitter #71;49,761108497919;6,6478036816875;0;0;0;0;TwinRx;Unknown;0;94;54;0;0;0;0;0;The quick brown fox jumps over a lazy dog.
066c840d-cdb0-432d-b765-55af25b0c03d;-373;Transmitter #72;49,7593977329476;6,65700919553512;0;0;0;0;IdealSDR;OmniDirectional;0;91;11;0;0;0;0;0;Franz jagt im komplett verwahrlosten Taxi quer durch Bayern.
9aa6fa8b-ca5d-4c66-a34a-246d606430f4;-545;Transmitter #73;49,7937487766228;6,65656505331717;0;0;0;0;IdealSDR;OmniDirectional;0;100;63;0;0;0;0;0;Vom Ödipuskomplex maßlos gequält, übt Wilfried zyklisches Jodeln.
7910107a-6456-4e13-922a-6877ec8dcdd9;-380;Transmitter #74;49,7463045359916;6,63002637660612;0;0;0;0;Unknown;Unknown;0;86;10;0;0;0;0;0;Vom Ödipuskomplex maßlos gequält, übt Wilfried zyklisches Jodeln.
39ff39c0-058a-4ad9-8038-c20e33a8c3e6;-92;Transmitter #75;49,7624636050715;6,6239534392088;0;0;0;0;TwinRx;OmniDirectional;0;99;11;0;0;0;0;0;Falsches Üben von Xylophonmusik quält jeden größeren Zwerg.
fa935d5b-b103-4163-87e2-93b2cf4a7abf;22;Transmitter #76;49,7527909138364;6,61955759902944;0;0;0;0;TwinRx;Unknown;0;95;35;0;0;0;0;0;Falsches Üben von Xylophonmusik quält jeden größeren Zwerg.
7fc164ad-d724-4f58-a285-e8bcd174382b;171;Transmitter #77;49,7898437353846;6,63549115011738;0;0;0;0;HackRF;OmniDirectional;0;87;63;0;0;0;0;0;Franz jagt im komplett verwahrlosten Taxi quer durch Bayern.
68163187-764a-485e-8e00-0c19d331937d;112;Transmitter #78;49,7911150163342;6,62572300693301;0;0;0;0;TwinRx;OmniDirectional;0;99;53;0;0;0;0;0;Franz jagt im komplett verwahrlosten Taxi quer durch Bayern.
be37aeaa-8b50-4142-ab0f-06c4106c28c9;-452;Transmitter #79;49,7539054798091;6,64446933415475;0;0;0;0;Unknown;OmniDirectional;0;94;62;0;0;0;0;0;The quick brown fox jumps over a lazy dog.
c8e0aac7-e689-4afd-8151-cc8319e76ef3;900;Transmitter #80;49,7941679624226;6,64755653172632;0;0;0;0;IdealSDR;Unknown;0;88;65;0;0;0;0;0;Falsches Üben von Xylophonmusik quält jeden größeren Zwerg.
f29377d8-4c7d-4daf-8592-bb37a252d303;297;Transmitter #81;49,7656196884063;6,6302377743975;0;0;0;0;Unknown;Unknown;0;99;49;0;0;0;0;0;The quick brown fox jumps over a lazy dog.
c64a2bfa-b7da-4aff-805c-949472eabb6f;154;Transmitter #82;49,7519795786011;6,61513981900897;0;0;0;0;TwinRx;Unknown;0;91;57;0;0;0;0;0;Falsches Üben von Xylophonmusik quält jeden größeren Zwerg.
f393efff-5810-4a5a-b606-063e943aeaa5;65;Transmitter #83;49,7890444475519;6,63139131119088;0;0;0;0;Unknown;Unknown;0;92;63;0;0;0;0;0;Franz jagt im komplett verwahrlosten Taxi quer durch Bayern.
30326971-e0af-4e34-b21f-3383ae776d89;-729;Transmitter #84;49,7916703060341;6,63211920253114;0;0;0;0;IdealSDR;OmniDirectional;0;97;36;0;0;0;0;0;The quick brown fox jumps over a lazy dog.
36fa3138-f985-4afc-966a-30233260b8a7;-768;Transmitter #85;49,7677136365518;6,61716879632206;0;0;0;0;Unknown;OmniDirectional;0;101;47;0;0;0;0;0;Vom Ödipuskomplex maßlos gequält, übt Wilfried zyklisches Jodeln.
0a078ac6-7f12-4ceb-b960-b099b62532f5;206;Transmitter #86;49,7573080059519;6,6352050418153;0;0;0;0;Unknown;OmniDirectional;0;89;77;0;0;0;0;0;Vom Ödipuskomplex maßlos gequält, übt Wilfried zyklisches Jodeln.
ca7b2cf0-5614-4c4f-90dc-1cabdebdba5e;-411;Transmitter #87;49,789936967899;6,64532847981231;0;0;0;0;Unknown;Unknown;0;85;67;0;0;0;0;0;The quick brown fox jumps over a lazy dog.
99700de7-d5ea-40b4-924f-13801d0dbdca;274;Transmitter #88;49,7544858185008;6,64858626552806;0;0;0;0;Unknown;OmniDirectional;0;93;73;0;0;0;0;0;Falsches Üben von Xylophonmusik quält jeden größeren Zwerg.
93baa817-de9d-4755-9826-b982e2f429f6;509;Transmitter #89;49,7755034843922;6,63487335598337;0;0;0;0;IdealSDR;OmniDirectional;0;103;32;0;0;0;0;0;Vom Ödipuskomplex maßlos gequält, übt Wilfried zyklisches Jodeln.
cace014e-7e81-4a4a-9b9a-5df181632cb6;-332;Transmitter #90;49,7837181824062;6,62350569461184;0;0;0;0;TwinRx;Unknown;0;100;56;0;0;0;0;0;Falsches Üben von Xylophonmusik quält jeden größeren Zwerg.
24907809-6b42-4d7e-b210-7c6137c0fe51;927;Transmitter #91;49,7812487606681;6,65665758303225;0;0;0;0;TwinRx;OmniDirectional;0;96;50;0;0;0;0;0;Franz jagt im komplett verwahrlosten Taxi quer durch Bayern.
f6bebf4f-17c7-4d26-8045-e7d985b59630;249;Transmitter #92;49,7845421979941;6,62167719128168;0;0;0;0;HackRF;OmniDirectional;0;100;23;0;0;0;0;0;Franz jagt im komplett verwahrlosten Taxi quer durch Bayern.
864758f3-fa91-47c7-972f-a569a168cde7;-335;Transmitter #93;49,767967337855;6,62714205440946;0;0;0;0;Unknown;Unknown;0;102;34;0;0;0;0;0;The quick brown fox jumps over a lazy dog.
4f251d71-8789-4d50-8e6d-fa6b100d9b3b;141;Transmitter #94;49,7894806500819;6,63817435376275;0;0;0;0;IdealSDR;Unknown;0;87;29;0;0;0;0;0;Falsches Üben von Xylophonmusik quält jeden größeren Zwerg.
644aa568-95ae-4e72-b057-4ee45119ecf2;25;Transmitter #95;49,7841925673457;6,65453088127302;0;0;0;0;TwinRx;Unknown;0;91;75;0;0;0;0;0;Franz jagt im komplett verwahrlosten Taxi quer durch Bayern.
fd2cf1a8-2419-4e0b-b061-8823b249ead8;-954;Transmitter #96;49,7606979959572;6,63757796682319;0;0;0;0;HackRF;Unknown;0;86;51;0;0;0;0;0;Vom Ödipuskomplex maßlos gequält, übt Wilfried zyklisches Jodeln.
86248694-8a9c-4bcd-a098-4c33f5286e83;138;Transmitter #97;49,7456712699819;6,63378345040795;0;0;0;0;TwinRx;Unknown;0;101;14;0;0;0;0;0;Franz jagt im komplett verwahrlosten Taxi quer durch Bayern.
91f49870-0c0c-44e9-a3af-b089c4fca974;-267;Transmitter #98;49,7677884030582;6,6642364735969;0;0;0;0;IdealSDR;OmniDirectional;0;95;27;0;0;0;0;0;Vom Ödipuskomplex maßlos gequält, übt Wilfried zyklisches Jodeln.
1be41501-34b6-43ab-b76f-908a574f2c49;0;Transmitter #99;49,7586650098127;6,65228728421153;0;0;0;0;HackRF;Unknown;0;95;49;0;0;0;0;0;Falsches Üben von Xylophonmusik quält jeden größeren Zwerg.
26dfb1d8-9741-44db-a49d-f2ac703d2977;21;Transmitter #100;49,7487512495241;6,65644240514224;0;0;0;0;TwinRx;OmniDirectional;0;102;53;0;0;0;0;0;Vom Ödipuskomplex maßlos gequält, übt Wilfried zyklisches Jodeln.
add85a23-91c0-42ca-9f08-97877504c2bb;-427;Transmitter #101;49,7910734123154;6,63929745912533;0;0;0;0;Unknown;Unknown;0;100;34;0;0;0;0;0;Vom Ödipuskomplex maßlos gequält, übt Wilfried zyklisches Jodeln.
55384f8b-26bd-4307-accb-67ba0b7506c3;432;Transmitter #102;49,7810147448465;6,62902967025029;0;0;0;0;IdealSDR;OmniDirectional;0;101;14;0;0;0;0;0;Vom Ödipuskomplex maßlos gequält, übt Wilfried zyklisches Jodeln.
5c1ee0ef-6e74-4e97-ab0d-eedf3e593c27;-875;Transmitter #103;49,7923775305116;6,66461615562668;0;0;0;0;TwinRx;OmniDirectional;0;89;49;0;0;0;0;0;Franz jagt im komplett verwahrlosten Taxi quer durch Bayern.
6fd9fabb-2397-44a0-a8cf-ecfa21745676;-120;Transmitter #104;49,7650359246129;6,61579879888152;0;0;0;0;HackRF;Unknown;0;95;55;0;0;0;0;0;Vom Ödipuskomplex maßlos gequält, übt Wilfried zyklisches Jodeln.
6fc4f254-c7dd-4ac2-9e9d-82bd0b80f00a;664;Transmitter #105;49,769197844408;6,65718525033327;0;0;0;0;IdealSDR;OmniDirectional;0;92;64;0;0;0;0;0;Vom Ödipuskomplex maßlos gequält, übt Wilfried zyklisches Jodeln.
a915dc96-2f41-411d-86b0-5a2f43bb411c;834;Transmitter #106;49,7479031504;6,64690025501754;0;0;0;0;HackRF;OmniDirectional;0;93;53;0;0;0;0;0;Vom Ödipuskomplex maßlos gequält, übt Wilfried zyklisches Jodeln.
63888f2f-cfcc-42f1-9e53-3e0e9fc7ccae;-999;Transmitter #107;49,761863178823;6,63836430380059;0;0;0;0;HackRF;Unknown;0;87;23;0;0;0;0;0;Franz jagt im komplett verwahrlosten Taxi quer durch Bayern.
7667e77c-bd7d-4c33-b958-5e2fac5f237c;-298;Transmitter #108;49,7686897868488;6,63514036309227;0;0;0;0;HackRF;Unknown;0;102;59;0;0;0;0;0;Franz jagt im komplett verwahrlosten Taxi quer durch Bayern.
7e72aa3b-ca17-4334-bed0-d0bb4f512d9a;-877;Transmitter #109;49,783949732365;6,63097404698901;0;0;0;0;Unknown;Unknown;0;102;42;0;0;0;0;0;Vom Ödipuskomplex maßlos gequält, übt Wilfried zyklisches Jodeln.
b60ed8d0-aee5-4dac-9aa0-f36c46ddb59c;-683;Transmitter #110;49,757802093067;6,64435777768244;0;0;0;0;HackRF;Unknown;0;90;63;0;0;0;0;0;Franz jagt im komplett verwahrlosten Taxi quer durch Bayern.
281baf9b-8c21-47e4-9e12-fc5e21eb893b;538;Transmitter #111;49,7611824318464;6,63763386182391;0;0;0;0;TwinRx;OmniDirectional;0;88;55;0;0;0;0;0;Vom Ödipuskomplex maßlos gequält, übt Wilfried zyklisches Jodeln.
dcb1373e-ea18-456d-bca9-ac5d1761b258;-446;Transmitter #112;49,7852839021753;6,65724530019683;0;0;0;0;TwinRx;Unknown;0;93;10;0;0;0;0;0;Franz jagt im komplett verwahrlosten Taxi quer durch Bayern.
733f79ad-a93f-454a-90b6-cc485ad4a539;-327;Transmitter #113;49,7679592296908;6,62568141064419;0;0;0;0;HackRF;OmniDirectional;0;99;61;0;0;0;0;0;Franz jagt im komplett verwahrlosten Taxi quer durch Bayern.
9b04322e-572c-44ba-b8d1-53373f2bdffd;722;Transmitter #114;49,7856092546412;6,63147622408428;0;0;0;0;TwinRx;Unknown;0;103;41;0;0;0;0;0;Franz jagt im komplett verwahrlosten Taxi quer durch Bayern.
d6425590-ca9a-4c0c-9568-c9e5aeb4a64f;416;Transmitter #115;49,7641927374704;6,6434715117718;0;0;0;0;HackRF;OmniDirectional;0;86;19;0;0;0;0;0;Falsches Üben von Xylophonmusik quält jeden größeren Zwerg.
d967d983-f370-4f42-aed4-4e80077c9b8c;-760;Transmitter #116;49,7753004251277;6,64530497362632;0;0;0;0;IdealSDR;OmniDirectional;0;103;57;0;0;0;0;0;Vom Ödipuskomplex maßlos gequält, übt Wilfried zyklisches Jodeln.
28fbf22a-c302-4e3d-b2ea-c4864b9a3520;-525;Transmitter #117;49,7736066392844;6,66116896534873;0;0;0;0;IdealSDR;OmniDirectional;0;90;75;0;0;0;0;0;Franz jagt im komplett verwahrlosten Taxi quer durch Bayern.
8f21c7d2-b88d-47dd-880b-5ef1a1653bb7;151;Transmitter #118;49,7615125612986;6,65458276730258;0;0;0;0;HackRF;Unknown;0;85;24;0;0;0;0;0;The quick brown fox jumps over a lazy dog.
375c433d-3501-4b8a-815a-18a5d9c61435;-304;Transmitter #119;49,7844369926761;6,65787154696797;0;0;0;0;TwinRx;Unknown;0;96;51;0;0;0;0;0;The quick brown fox jumps over a lazy dog.
a2027722-2128-4190-af65-073ac2323344;-360;Transmitter #120;49,7611092379479;6,63356270868045;0;0;0;0;HackRF;OmniDirectional;0;96;17;0;0;0;0;0;Falsches Üben von Xylophonmusik quält jeden größeren Zwerg.
8749286f-a19e-400b-acf1-d5ddbff2f68d;-736;Transmitter #121;49,7760608059819;6,63366331678068;0;0;0;0;Unknown;OmniDirectional;0;91;79;0;0;0;0;0;The quick brown fox jumps over a lazy dog.
6941f8be-8429-4eb3-abef-1fe2abed27cb;-127;Transmitter #122;49,7724413039378;6,65712199567231;0;0;0;0;IdealSDR;OmniDirectional;0;102;15;0;0;0;0;0;Franz jagt im komplett verwahrlosten Taxi quer durch Bayern.
a4774c32-d2a1-4224-88cf-05a0c5604df1;-212;Transmitter #123;49,7587864585373;6,65572906392442;0;0;0;0;IdealSDR;OmniDirectional;0;86;69;0;0;0;0;0;Vom Ödipuskomplex maßlos gequält, übt Wilfried zyklisches Jodeln.
7672e47a-0c17-4f80-bb9c-ca38d5b9f3c4;953;Transmitter #124;49,7777695789475;6,6562519346115;0;0;0;0;Unknown;Unknown;0;93;73;0;0;0;0;0;Franz jagt im komplett verwahrlosten Taxi quer durch Bayern.
58c57ba5-7687-436f-b9dc-fb320550c750;-578;Transmitter #125;49,7870298414076;6,62098779192254;0;0;0;0;IdealSDR;Unknown;0;89;33;0;0;0;0;0;Franz jagt im komplett verwahrlosten Taxi quer durch Bayern.
ab5f2bbb-599c-4228-9ad5-1b931c5e49eb;567;Transmitter #126;49,7661391956452;6,62392268004558;0;0;0;0;HackRF;Unknown;0;94;10;0;0;0;0;0;The quick brown fox jumps over a lazy dog.
cab8b48d-4207-4c51-8e54-dda0065c7b88;-517;Transmitter #127;49,7599140103365;6,61978179393806;0;0;0;0;Unknown;Unknown;0;102;74;0;0;0;0;0;Franz jagt im komplett verwahrlosten Taxi quer durch Bayern.
c6a45b42-3b76-4649-ae21-64afdcb94d75;527;Transmitter #128;49,7817711669279;6,66383347108687;0;0;0;0;HackRF;OmniDirectional;0;89;48;0;0;0;0;0;Falsches Üben von Xylophonmusik quält jeden größeren Zwerg.
4fcf435e-b76c-4abf-9cc5-51e2e8b19373;281;Transmitter #129;49,7875670633099;6,66011571811997;0;0;0;0;HackRF;Unknown;0;102;39;0;0;0;0;0;Franz jagt im komplett verwahrlosten Taxi quer durch Bayern.
69389f7b-2b25-4371-96ad-0513439dea09;877;Transmitter #130;49,7839045113454;6,63773659676222;0;0;0;0;TwinRx;Unknown;0;95;73;0;0;0;0;0;Vom Ödipuskomplex maßlos gequält, übt Wilfried zyklisches Jodeln.
926cacf1-498d-457c-a581-f72cc05366cb;268;Transmitter #131;49,7645695398042;6,64058100177482;0;0;0;0;TwinRx;OmniDirectional;0;85;27;0;0;0;0;0;The quick brown fox jumps over a lazy dog.
8b1efe1e-8788-448d-a9e5-5c2bbb4d262e;824;Transmitter #132;49,747620658796;6,63748470224803;0;0;0;0;Unknown;OmniDirectional;0;104;50;0;0;0;0;0;Vom Ödipuskomplex maßlos gequält, übt Wilfried zyklisches Jodeln.
d2d6cecf-3a5e-4d1c-9ec6-26bac7636f4f;721;Transmitter #133;49,7549464927654;6,64928038212917;0;0;0;0;Unknown;Unknown;0;96;58;0;0;0;0;0;The quick brown fox jumps over a lazy dog.
043d5c02-541b-4d8b-83c1-367488a2e103;739;Transmitter #134;49,7929831926323;6,66108911384427;0;0;0;0;Unknown;OmniDirectional;0;90;24;0;0;0;0;0;Franz jagt im komplett verwahrlosten Taxi quer durch Bayern.
3129fee8-b88d-4ada-b9cf-ae88f66d68ec;650;Transmitter #135;49,7690764444847;6,6513862327401;0;0;0;0;IdealSDR;Unknown;0;104;54;0;0;0;0;0;Vom Ödipuskomplex maßlos gequält, übt Wilfried zyklisches Jodeln.
201d53a9-47ce-406c-a29d-b175e40c01aa;200;Transmitter #136;49,7735761457111;6,64090052495301;0;0;0;0;TwinRx;OmniDirectional;0;94;71;0;0;0;0;0;Falsches Üben von Xylophonmusik quält jeden größeren Zwerg.
82d5f2f3-ddc4-4b41-bef4-1bee7a2ff662;-604;Transmitter #137;49,7911256760195;6,65316983349317;0;0;0;0;TwinRx;Unknown;0;85;75;0;0;0;0;0;Franz jagt im komplett verwahrlosten Taxi quer durch Bayern.
2501cdd5-8dc1-4f95-b75b-b35a53626fbb;389;Transmitter #138;49,7518590490686;6,65143218841019;0;0;0;0;HackRF;OmniDirectional;0;90;74;0;0;0;0;0;Vom Ödipuskomplex maßlos gequält, übt Wilfried zyklisches Jodeln.
22b508aa-16ca-43f4-8b42-d2ab7c06d421;682;Transmitter #139;49,7558508586044;6,62038715072474;0;0;0;0;Unknown;OmniDirectional;0;94;66;0;0;0;0;0;Falsches Üben von Xylophonmusik quält jeden größeren Zwerg.
b3852878-dc1d-4dff-adb0-ea9cb3914e51;102;Transmitter #140;49,7496391211047;6,62998311453046;0;0;0;0;IdealSDR;OmniDirectional;0;104;78;0;0;0;0;0;The quick brown fox jumps over a lazy dog.
648aafbd-288e-42f1-9c0e-605ccdc2d631;-850;Transmitter #141;49,7928929806299;6,6543870517028;0;0;0;0;HackRF;Unknown;0;95;38;0;0;0;0;0;Falsches Üben von Xylophonmusik quält jeden größeren Zwerg.
07c2890e-91f7-41cc-b45b-03d2db3cd289;71;Transmitter #142;49,7792069969014;6,63473073305796;0;0;0;0;TwinRx;OmniDirectional;0;89;44;0;0;0;0;0;The quick brown fox jumps over a lazy dog.
ba8e8ad3-a199-4b49-a888-1c92fecccc2c;272;Transmitter #143;49,7904993054989;6,65836069290464;0;0;0;0;IdealSDR;OmniDirectional;0;86;61;0;0;0;0;0;Vom Ödipuskomplex maßlos gequält, übt Wilfried zyklisches Jodeln.
b550c073-8392-4104-aa0b-c614e3776f0a;-800;Transmitter #144;49,7883405457307;6,62152099279306;0;0;0;0;TwinRx;Unknown;0;103;79;0;0;0;0;0;Vom Ödipuskomplex maßlos gequält, übt Wilfried zyklisches Jodeln.
e4bbf1df-7ff1-4135-b68a-dabffe8015e3;-700;Transmitter #145;49,7627524688079;6,63103363812963;0;0;0;0;IdealSDR;OmniDirectional;0;93;16;0;0;0;0;0;The quick brown fox jumps over a lazy dog.
5d051613-7f08-4a85-9924-b0a7cc4efb92;599;Transmitter #146;49,759645078114;6,62791172359987;0;0;0;0;TwinRx;OmniDirectional;0;89;57;0;0;0;0;0;The quick brown fox jumps over a lazy dog.
eba8b100-4b47-43ec-8cc1-f0865a202705;191;Transmitter #147;49,793195084956;6,63327448574061;0;0;0;0;IdealSDR;OmniDirectional;0;100;10;0;0;0;0;0;Falsches Üben von Xylophonmusik quält jeden größeren Zwerg.
4bad6dd0-47ae-4edf-adcb-2d93b4ec63d6;-578;Transmitter #148;49,7489804084286;6,63484017226153;0;0;0;0;TwinRx;OmniDirectional;0;98;18;0;0;0;0;0;Vom Ödipuskomplex maßlos gequält, übt Wilfried zyklisches Jodeln.
d9b1a148-fbd7-4452-afd4-41004c0545ec;366;Transmitter #149;49,7793881183505;6,63733751188388;0;0;0;0;Unknown;Unknown;0;91;71;0;0;0;0;0;Franz jagt im komplett verwahrlosten Taxi quer durch Bayern.
467afbec-384d-4557-814d-27a136901b82;625;Transmitter #150;49,7727669019236;6,63472227073508;0;0;0;0;IdealSDR;Unknown;0;88;54;0;0;0;0;0;Falsches Üben von Xylophonmusik quält jeden größeren Zwerg.
79773a2c-7f70-4081-a95d-d25d41564b34;-649;Transmitter #151;49,7865695491481;6,62254624185751;0;0;0;0;TwinRx;Unknown;0;101;52;0;0;0;0;0;The quick brown fox jumps over a lazy dog.
0ed44401-ea73-45eb-912d-9c527551ba7f;-321;Transmitter #152;49,7617878407871;6,66254883152565;0;0;0;0;HackRF;OmniDirectional;0;93;75;0;0;0;0;0;Franz jagt im komplett verwahrlosten Taxi quer durch Bayern.
e4e0f8b5-909d-4e97-8627-a596675b4876;-683;Transmitter #153;49,7783119841256;6,65868639200879;0;0;0;0;HackRF;Unknown;0;101;37;0;0;0;0;0;The quick brown fox jumps over a lazy dog.
b2176d6a-4bb7-4d0e-ae9d-1010a667eb91;-850;Transmitter #154;49,7533512812234;6,63219445951865;0;0;0;0;TwinRx;OmniDirectional;0;103;22;0;0;0;0;0;Franz jagt im komplett verwahrlosten Taxi quer durch Bayern.
ad7256f2-c011-4942-9611-b53f49822e3d;-126;Transmitter #155;49,7710853178263;6,63962456417732;0;0;0;0;TwinRx;Unknown;0;92;12;0;0;0;0;0;Falsches Üben von Xylophonmusik quält jeden größeren Zwerg.
8ed9aca8-88e5-44f7-b20c-fe46cb1b2b23;-857;Transmitter #156;49,7494641298071;6,64173321921007;0;0;0;0;TwinRx;OmniDirectional;0;94;22;0;0;0;0;0;The quick brown fox jumps over a lazy dog.
25dbf489-f036-4507-8744-b9ff0d85fd44;225;Transmitter #157;49,7582395563983;6,66153386284217;0;0;0;0;IdealSDR;OmniDirectional;0;89;18;0;0;0;0;0;The quick brown fox jumps over a lazy dog.
ed2f7f36-3488-4080-a3b6-1d66a1cb9d23;-133;Transmitter #158;49,7894936284345;6,64827694871397;0;0;0;0;HackRF;OmniDirectional;0;85;78;0;0;0;0;0;The quick brown fox jumps over a lazy dog.
1faedfc3-e366-4077-9aff-19dfc794330d;-695;Transmitter #159;49,791482097942;6,66271181546758;0;0;0;0;TwinRx;Unknown;0;92;54;0;0;0;0;0;Falsches Üben von Xylophonmusik quält jeden größeren Zwerg.
1dadf133-4591-41de-b567-f1e67237a926;245;Transmitter #160;49,7467276059187;6,63151254091496;0;0;0;0;TwinRx;OmniDirectional;0;100;72;0;0;0;0;0;Vom Ödipuskomplex maßlos gequält, übt Wilfried zyklisches Jodeln.
ddca56c1-d23c-483a-a242-c7f70306a6f7;959;Transmitter #161;49,7930041254809;6,66233995999333;0;0;0;0;IdealSDR;Unknown;0;85;60;0;0;0;0;0;Franz jagt im komplett verwahrlosten Taxi quer durch Bayern.
0de3bf21-7984-4565-ac4c-fdee2c5cfe80;-210;Transmitter #162;49,7516901532307;6,62140365457707;0;0;0;0;TwinRx;Unknown;0;97;35;0;0;0;0;0;Franz jagt im komplett verwahrlosten Taxi quer durch Bayern.
379b1819-9ee5-4dad-a70f-42292e95482c;-800;Transmitter #163;49,7510556698427;6,63682969118335;0;0;0;0;HackRF;Unknown;0;98;42;0;0;0;0;0;Franz jagt im komplett verwahrlosten Taxi quer durch Bayern.
bfea04cd-678b-4a43-ab1c-b13e3442833c;248;Transmitter #164;49,7532842564057;6,64186523490686;0;0;0;0;HackRF;Unknown;0;93;16;0;0;0;0;0;Vom Ödipuskomplex maßlos gequält, übt Wilfried zyklisches Jodeln.
3c32fda2-5e22-4baf-a7ac-2126c6e36238;965;Transmitter #165;49,74939183999;6,63627984296837;0;0;0;0;TwinRx;OmniDirectional;0;102;40;0;0;0;0;0;Franz jagt im komplett verwahrlosten Taxi quer durch Bayern.
a4463af4-80ff-46a0-a8f3-61ed5dc059fc;-612;Transmitter #166;49,7828842877441;6,62091562990621;0;0;0;0;Unknown;OmniDirectional;0;85;14;0;0;0;0;0;Falsches Üben von Xylophonmusik quält jeden größeren Zwerg.
a6fb5d89-fcdf-451b-b7f6-0a5541e1e8bd;331;Transmitter #167;49,7607665184348;6,64415972518477;0;0;0;0;IdealSDR;OmniDirectional;0;93;13;0;0;0;0;0;The quick brown fox jumps over a lazy dog.
8afad722-3e06-487f-afb3-33669c61e7f5;-35;Transmitter #168;49,7807600722902;6,6401471306246;0;0;0;0;Unknown;OmniDirectional;0;93;31;0;0;0;0;0;Falsches Üben von Xylophonmusik quält jeden größeren Zwerg.
aa56597a-147c-4550-b02f-359a6167a6d9;-946;Transmitter #169;49,7701286443015;6,64704022323123;0;0;0;0;TwinRx;OmniDirectional;0;101;74;0;0;0;0;0;Franz jagt im komplett verwahrlosten Taxi quer durch Bayern.
887b72ba-1728-4c87-9ebd-ba16ec57ab9d;345;Transmitter #170;49,7603279662477;6,62769389057904;0;0;0;0;Unknown;Unknown;0;98;10;0;0;0;0;0;Vom Ödipuskomplex maßlos gequält, übt Wilfried zyklisches Jodeln.
75d8f96b-127c-4950-b9b2-55c3b47bc5b7;-803;Transmitter #171;49,7726549390454;6,6454939305949;0;0;0;0;TwinRx;Unknown;0;103;29;0;0;0;0;0;Vom Ödipuskomplex maßlos gequält, übt Wilfried zyklisches Jodeln.
c9a7e0c8-195e-4474-a9c9-d392c24543bd;-954;Transmitter #172;49,7509888193918;6,61756526176253;0;0;0;0;HackRF;OmniDirectional;0;97;56;0;0;0;0;0;Vom Ödipuskomplex maßlos gequält, übt Wilfried zyklisches Jodeln.
f21dc63d-7c51-47ff-af14-681215306f3a;-118;Transmitter #173;49,7533269149145;6,65347003237985;0;0;0;0;TwinRx;OmniDirectional;0;93;65;0;0;0;0;0;Falsches Üben von Xylophonmusik quält jeden größeren Zwerg.
dc3d69a8-da32-47a6-8906-b126f6179eb6;-240;Transmitter #174;49,762248488253;6,6391069377211;0;0;0;0;IdealSDR;OmniDirectional;0;90;64;0;0;0;0;0;Falsches Üben von Xylophonmusik quält jeden größeren Zwerg.
88936252-4cb9-4d58-b537-d58c237c351a;413;Transmitter #175;49,7897637909109;6,65124792672766;0;0;0;0;Unknown;Unknown;0;99;17;0;0;0;0;0;Franz jagt im komplett verwahrlosten Taxi quer durch Bayern.
1ae369e7-836a-4ffd-9eb8-3bc1ff92214c;-563;Transmitter #176;49,7508556791929;6,64554683695819;0;0;0;0;IdealSDR;Unknown;0;95;73;0;0;0;0;0;Franz jagt im komplett verwahrlosten Taxi quer durch Bayern.
62ddad9c-3041-4fec-8429-69a7af329b1a;264;Transmitter #177;49,7709686839696;6,63190137595972;0;0;0;0;HackRF;Unknown;0;90;27;0;0;0;0;0;Vom Ödipuskomplex maßlos gequält, übt Wilfried zyklisches Jodeln.
9bccb6a1-dcf9-42b4-8641-4fca5ab9b8cf;503;Transmitter #178;49,7839549096104;6,62543332386563;0;0;0;0;TwinRx;OmniDirectional;0;89;33;0;0;0;0;0;Vom Ödipuskomplex maßlos gequält, übt Wilfried zyklisches Jodeln.
36f7a6c0-231e-41d1-8bdd-389bc4b8dc0c;-321;Transmitter #179;49,7574483809207;6,64910966848927;0;0;0;0;HackRF;Unknown;0;99;73;0;0;0;0;0;Vom Ödipuskomplex maßlos gequält, übt Wilfried zyklisches Jodeln.
338ef55a-cbc4-40c2-a292-e01aeef711b8;-911;Transmitter #180;49,7796685779018;6,64128519551902;0;0;0;0;HackRF;Unknown;0;99;14;0;0;0;0;0;Falsches Üben von Xylophonmusik quält jeden größeren Zwerg.
ea551731-7db4-4e35-90ab-5595c5f59966;-129;Transmitter #181;49,7666770141527;6,63634368829738;0;0;0;0;TwinRx;Unknown;0;92;73;0;0;0;0;0;The quick brown fox jumps over a lazy dog.
add47e8d-71d4-40f9-83b0-1ecd2b8902c1;267;Transmitter #182;49,7479416136265;6,62374285923505;0;0;0;0;IdealSDR;Unknown;0;97;54;0;0;0;0;0;Franz jagt im komplett verwahrlosten Taxi quer durch Bayern.
68285376-ee6f-4d33-a269-3348edae16a5;537;Transmitter #183;49,7886326172447;6,65237326828887;0;0;0;0;TwinRx;Unknown;0;93;21;0;0;0;0;0;Falsches Üben von Xylophonmusik quält jeden größeren Zwerg.
34e83263-07b8-494f-b1f8-8688e4fc659e;209;Transmitter #184;49,7761890483554;6,6319056962953;0;0;0;0;IdealSDR;Unknown;0;104;70;0;0;0;0;0;Franz jagt im komplett verwahrlosten Taxi quer durch Bayern.
1cbe8bc3-be4c-487e-aaf3-4d0035f46578;403;Transmitter #185;49,7637303237047;6,61867850618855;0;0;0;0;IdealSDR;Unknown;0;98;66;0;0;0;0;0;Falsches Üben von Xylophonmusik quält jeden größeren Zwerg.
2209ca5b-185a-4623-8d20-3d15dd64a927;-345;Transmitter #186;49,7569991930298;6,65619838803378;0;0;0;0;Unknown;Unknown;0;101;25;0;0;0;0;0;The quick brown fox jumps over a lazy dog.
f2b5b218-9d1d-4ab0-963f-c4d72b9e1488;-887;Transmitter #187;49,771598136679;6,63921875105217;0;0;0;0;Unknown;Unknown;0;95;79;0;0;0;0;0;Falsches Üben von Xylophonmusik quält jeden größeren Zwerg.
3cc2f288-57fe-4f3c-919c-cf87d0d69f38;-492;Transmitter #188;49,7721313972007;6,61874554478985;0;0;0;0;HackRF;OmniDirectional;0;98;60;0;0;0;0;0;Vom Ödipuskomplex maßlos gequält, übt Wilfried zyklisches Jodeln.
d2088f2a-7849-4d88-bed7-4f771f851509;-632;Transmitter #189;49,7518819419321;6,63315124817819;0;0;0;0;IdealSDR;Unknown;0;96;25;0;0;0;0;0;Franz jagt im komplett verwahrlosten Taxi quer durch Bayern.
063dd1ac-9782-418c-8549-e3da015a63c2;-898;Transmitter #190;49,7852576720803;6,62504095654718;0;0;0;0;TwinRx;Unknown;0;91;33;0;0;0;0;0;Falsches Üben von Xylophonmusik quält jeden größeren Zwerg.
cd5d2f90-d6d9-4971-94c6-0bdb464e14e9;-204;Transmitter #191;49,7902813941306;6,62275975470574;0;0;0;0;IdealSDR;Unknown;0;103;16;0;0;0;0;0;Franz jagt im komplett verwahrlosten Taxi quer durch Bayern.
070227d6-bab2-4b3d-b181-b9c5dce85fc3;-251;Transmitter #192;49,7494857145116;6,65376370320752;0;0;0;0;HackRF;Unknown;0;94;73;0;0;0;0;0;Vom Ödipuskomplex maßlos gequält, übt Wilfried zyklisches Jodeln.
dc37c20a-2bae-4514-aa91-ea3002e1c655;12;Transmitter #193;49,7549542779702;6,64750868921997;0;0;0;0;HackRF;OmniDirectional;0;86;74;0;0;0;0;0;The quick brown fox jumps over a lazy dog.
a7d07255-d7aa-449b-adc7-fb8074ad1e52;-388;Transmitter #194;49,7642348623313;6,65958475775546;0;0;0;0;IdealSDR;OmniDirectional;0;92;36;0;0;0;0;0;Falsches Üben von Xylophonmusik quält jeden größeren Zwerg.
95f081c2-d553-42cf-9b3d-a5e7daa6e92c;-598;Transmitter #195;49,7609893204341;6,66095668166003;0;0;0;0;IdealSDR;Unknown;0;95;18;0;0;0;0;0;The quick brown fox jumps over a lazy dog.
9027ea85-0b4f-4265-9102-f46a98f026af;-926;Transmitter #196;49,7554960374857;6,65316597225306;0;0;0;0;HackRF;Unknown;0;104;46;0;0;0;0;0;Vom Ödipuskomplex maßlos gequält, übt Wilfried zyklisches Jodeln.
a10750e0-b1d7-4766-a5f3-de1e1fc45f77;783;Transmitter #197;49,7741307038804;6,62058532846201;0;0;0;0;HackRF;Unknown;0;103;30;0;0;0;0;0;The quick brown fox jumps over a lazy dog.
5d8aba71-1e5c-4f19-bddb-a8e94b51bcd8;964;Transmitter #198;49,7802932566749;6,65971988604871;0;0;0;0;IdealSDR;OmniDirectional;0;103;67;0;0;0;0;0;Franz jagt im komplett verwahrlosten Taxi quer durch Bayern.
59aa8cf7-501c-45dc-b8b6-b9d724789425;407;Transmitter #199;49,788273730414;6,61739918846064;0;0;0;0;HackRF;Unknown;0;100;16;0;0;0;0;0;Falsches Üben von Xylophonmusik quält jeden größeren Zwerg.
d68d9334-1cd4-4b8e-b2e7-2b44efb3f8e4;-863;Transmitter #200;49,7648547097522;6,63460010829144;0;0;0;0;HackRF;OmniDirectional;0;94;54;0;0;0;0;0;The quick brown fox jumps over a lazy dog.
913df767-93ef-4172-a107-26baa76a387a;697;Transmitter #201;49,7622193365991;6,62819408982456;0;0;0;0;Unknown;OmniDirectional;0;104;26;0;0;0;0;0;The quick brown fox jumps over a lazy dog.
c7e4410b-7e99-4e54-9ba1-a10950c36c3a;-958;Transmitter #202;49,7754396728236;6,62327343677803;0;0;0;0;Unknown;Unknown;0;104;26;0;0;0;0;0;Franz jagt im komplett verwahrlosten Taxi quer durch Bayern.
bbe93b67-3428-45fd-878b-a425a294085c;-251;Transmitter #203;49,7835287610103;6,65197492837546;0;0;0;0;Unknown;Unknown;0;90;78;0;0;0;0;0;Franz jagt im komplett verwahrlosten Taxi quer durch Bayern.
c42b6373-89ce-4dba-bc55-61d43d8a88db;-23;Transmitter #204;49,751912859327;6,6327066657939;0;0;0;0;HackRF;Unknown;0;85;10;0;0;0;0;0;Vom Ödipuskomplex maßlos gequält, übt Wilfried zyklisches Jodeln.
0cce03c0-d46f-4ae8-85e4-f40775155019;-884;Transmitter #205;49,7732222022475;6,62923561789539;0;0;0;0;TwinRx;Unknown;0;86;62;0;0;0;0;0;Falsches Üben von Xylophonmusik quält jeden größeren Zwerg.
e0476d52-096b-467f-a9f9-4efe6a54813a;240;Transmitter #206;49,7829183286786;6,62734098642489;0;0;0;0;Unknown;Unknown;0;89;34;0;0;0;0;0;Franz jagt im komplett verwahrlosten Taxi quer durch Bayern.
2d49d4d2-5e05-4099-bb81-cb603150d8ce;-693;Transmitter #207;49,7599509108969;6,65980146557563;0;0;0;0;TwinRx;Unknown;0;98;39;0;0;0;0;0;Vom Ödipuskomplex maßlos gequält, übt Wilfried zyklisches Jodeln.
01470d5d-3333-4460-bcb7-f4c7deced7b2;-296;Transmitter #208;49,7518837554733;6,62852791113259;0;0;0;0;IdealSDR;Unknown;0;103;65;0;0;0;0;0;Franz jagt im komplett verwahrlosten Taxi quer durch Bayern.
e6a35f9d-d0ea-4c70-aeca-11de75b090a3;185;Transmitter #209;49,7781968812933;6,6542000112331;0;0;0;0;IdealSDR;Unknown;0;95;40;0;0;0;0;0;The quick brown fox jumps over a lazy dog.
3160fdad-8160-4541-b96a-5c1325f88ea9;-964;Transmitter #210;49,7949602921581;6,63201881352454;0;0;0;0;IdealSDR;OmniDirectional;0;85;48;0;0;0;0;0;Franz jagt im komplett verwahrlosten Taxi quer durch Bayern.
954ff1e4-ea4e-4e3f-9ee7-b86f5b9a9874;546;Transmitter #211;49,7591200222647;6,62188202860401;0;0;0;0;IdealSDR;OmniDirectional;0;94;64;0;0;0;0;0;The quick brown fox jumps over a lazy dog.
4f9e6b60-928e-41b6-ac4c-489bf6873078;-735;Transmitter #212;49,7801667669341;6,63186278907683;0;0;0;0;TwinRx;Unknown;0;97;20;0;0;0;0;0;Vom Ödipuskomplex maßlos gequält, übt Wilfried zyklisches Jodeln.
eb99360f-0c3a-484f-b402-694ca70a942c;917;Transmitter #213;49,757659274494;6,63386266900886;0;0;0;0;Unknown;OmniDirectional;0;90;36;0;0;0;0;0;Vom Ödipuskomplex maßlos gequält, übt Wilfried zyklisches Jodeln.
334f6899-acd9-4cec-8852-d522332639c6;713;Transmitter #214;49,7748606652248;6,64149226454636;0;0;0;0;TwinRx;OmniDirectional;0;90;50;0;0;0;0;0;The quick brown fox jumps over a lazy dog.
71de1cf9-90e7-4116-b6df-215a015faf40;163;Transmitter #215;49,74666227981;6,63262841099544;0;0;0;0;HackRF;Unknown;0;96;71;0;0;0;0;0;Franz jagt im komplett verwahrlosten Taxi quer durch Bayern.
e6d1da7b-1eb6-4e67-9239-340c1743cbfd;746;Transmitter #216;49,7656248712397;6,66176453668255;0;0;0;0;IdealSDR;OmniDirectional;0;102;46;0;0;0;0;0;The quick brown fox jumps over a lazy dog.
db527642-6d9f-42fb-b0c0-13497ee7dc4c;676;Transmitter #217;49,7787200333329;6,6252699617369;0;0;0;0;Unknown;Unknown;0;97;65;0;0;0;0;0;The quick brown fox jumps over a lazy dog.
ac83fe9f-4fc6-4b46-983d-3b741bf14b7a;785;Transmitter #218;49,7719073151917;6,63291085107401;0;0;0;0;TwinRx;Unknown;0;85;13;0;0;0;0;0;Falsches Üben von Xylophonmusik quält jeden größeren Zwerg.
bb1cfad2-4c0b-4d87-8309-4758681a14cd;-775;Transmitter #219;49,7953747917754;6,66275609384899;0;0;0;0;Unknown;OmniDirectional;0;101;71;0;0;0;0;0;The quick brown fox jumps over a lazy dog.
56247c4c-0fa6-4de3-8730-a89aa2a34b78;-278;Transmitter #220;49,757621616489;6,61784741240933;0;0;0;0;IdealSDR;OmniDirectional;0;92;38;0;0;0;0;0;Falsches Üben von Xylophonmusik quält jeden größeren Zwerg.
28124c4a-f1b8-4bc9-82f7-717ba8189100;-853;Transmitter #221;49,7519243529419;6,65988160490532;0;0;0;0;TwinRx;OmniDirectional;0;101;59;0;0;0;0;0;Falsches Üben von Xylophonmusik quält jeden größeren Zwerg.
1017de14-198c-47ff-982b-f24082731217;-534;Transmitter #222;49,7888012413227;6,63640142501178;0;0;0;0;HackRF;OmniDirectional;0;92;24;0;0;0;0;0;Falsches Üben von Xylophonmusik quält jeden größeren Zwerg.
a5c2c9ed-be03-43a4-8403-85dd662499f3;-285;Transmitter #223;49,7485083519818;6,65950354118822;0;0;0;0;IdealSDR;Unknown;0;99;19;0;0;0;0;0;Franz jagt im komplett verwahrlosten Taxi quer durch Bayern.
8b1b86a3-25bb-4f6a-9191-a9c49ad4b2a9;589;Transmitter #224;49,7865938627209;6,63501778353253;0;0;0;0;HackRF;Unknown;0;99;19;0;0;0;0;0;Vom Ödipuskomplex maßlos gequält, übt Wilfried zyklisches Jodeln.
b80a509c-555c-4af9-acda-0bc6eea8473a;-749;Transmitter #225;49,7653621160608;6,63773560301775;0;0;0;0;Unknown;OmniDirectional;0;92;67;0;0;0;0;0;The quick brown fox jumps over a lazy dog.
efab8138-506e-45fb-85dc-8e138b1b3d3d;-415;Transmitter #226;49,7949497253256;6,64163744458088;0;0;0;0;HackRF;OmniDirectional;0;96;21;0;0;0;0;0;Franz jagt im komplett verwahrlosten Taxi quer durch Bayern.
1c96e2ef-554d-4872-8754-f7e4ffe82401;-929;Transmitter #227;49,7569176297312;6,64956742759788;0;0;0;0;HackRF;OmniDirectional;0;88;11;0;0;0;0;0;The quick brown fox jumps over a lazy dog.
19b9f7c0-1c37-4745-a0ec-bf68c928672c;982;Transmitter #228;49,7899869619467;6,6585648713861;0;0;0;0;IdealSDR;OmniDirectional;0;91;38;0;0;0;0;0;The quick brown fox jumps over a lazy dog.
e48cebf6-37b5-41ff-aed2-dfe43e8ca13f;461;Transmitter #229;49,7911022892757;6,62233727269929;0;0;0;0;Unknown;Unknown;0;93;57;0;0;0;0;0;Falsches Üben von Xylophonmusik quält jeden größeren Zwerg.
645e3142-31ee-4263-bb54-1352dc4c36c8;-526;Transmitter #230;49,7753192554922;6,66053443353196;0;0;0;0;Unknown;OmniDirectional;0;99;52;0;0;0;0;0;Franz jagt im komplett verwahrlosten Taxi quer durch Bayern.
b53019e3-192f-4c49-9ce8-9c1458d9a21d;310;Transmitter #231;49,7651319647156;6,63253672757318;0;0;0;0;HackRF;OmniDirectional;0;101;12;0;0;0;0;0;Falsches Üben von Xylophonmusik quält jeden größeren Zwerg.
8d3f60cc-cad0-4b11-91d7-37ab5459e6aa;-247;Transmitter #232;49,7519165842448;6,65512590079821;0;0;0;0;HackRF;Unknown;0;96;71;0;0;0;0;0;Falsches Üben von Xylophonmusik quält jeden größeren Zwerg.
733bfb3f-d14f-4465-9749-2d4a2375b66a;163;Transmitter #233;49,747518183231;6,64805289087275;0;0;0;0;HackRF;OmniDirectional;0;92;17;0;0;0;0;0;Vom Ödipuskomplex maßlos gequält, übt Wilfried zyklisches Jodeln.
b1a8e411-9408-4556-94ac-2eb487799e4d;93;Transmitter #234;49,7811258445051;6,61740104994164;0;0;0;0;Unknown;OmniDirectional;0;86;17;0;0;0;0;0;Franz jagt im komplett verwahrlosten Taxi quer durch Bayern.
05108187-42db-458c-8dcc-acbf25bf2ef2;-432;Transmitter #235;49,7791811620365;6,64346198608808;0;0;0;0;IdealSDR;Unknown;0;86;41;0;0;0;0;0;Falsches Üben von Xylophonmusik quält jeden größeren Zwerg.
448417bf-f48f-4222-93f1-8b4f45bfff45;765;Transmitter #236;49,7565171935271;6,6368416125314;0;0;0;0;Unknown;Unknown;0;93;43;0;0;0;0;0;Vom Ödipuskomplex maßlos gequält, übt Wilfried zyklisches Jodeln.
efb75960-8878-4221-a1ed-8cf9ae54c5ff;442;Transmitter #237;49,7923083296121;6,63319743276737;0;0;0;0;IdealSDR;OmniDirectional;0;87;62;0;0;0;0;0;The quick brown fox jumps over a lazy dog.
b0d515bb-3972-44ab-9b50-32390df3a8ee;-433;Transmitter #238;49,7818893699235;6,65386984469098;0;0;0;0;HackRF;Unknown;0;87;54;0;0;0;0;0;The quick brown fox jumps over a lazy dog.
456cce2f-eec7-4dbb-8f9c-c95811803401;-967;Transmitter #239;49,7733264984782;6,66336762232411;0;0;0;0;Unknown;OmniDirectional;0;102;10;0;0;0;0;0;The quick brown fox jumps over a lazy dog.
d7044774-cf0c-46b0-9d88-7898d25439e0;195;Transmitter #240;49,7844868385039;6,64506826935586;0;0;0;0;IdealSDR;Unknown;0;91;11;0;0;0;0;0;Franz jagt im komplett verwahrlosten Taxi quer durch Bayern.
d060aebb-2f45-4d97-a0f9-52ab1778f0d7;-518;Transmitter #241;49,7659561353222;6,62314885387358;0;0;0;0;HackRF;Unknown;0;103;21;0;0;0;0;0;Franz jagt im komplett verwahrlosten Taxi quer durch Bayern.
1d1a40bc-dcf2-4bcd-95bf-7c04bef28a08;852;Transmitter #242;49,7588604802418;6,6518162159911;0;0;0;0;IdealSDR;OmniDirectional;0;87;15;0;0;0;0;0;Vom Ödipuskomplex maßlos gequält, übt Wilfried zyklisches Jodeln.
6da504f5-d329-4171-a7a5-b1d58f02c7c5;164;Transmitter #243;49,7522560635237;6,65239472260824;0;0;0;0;IdealSDR;OmniDirectional;0;97;52;0;0;0;0;0;Falsches Üben von Xylophonmusik quält jeden größeren Zwerg.
65b2efbe-bb67-4cde-bf43-d7bb08fcbb64;858;Transmitter #244;49,7887789906061;6,64353270974654;0;0;0;0;HackRF;Unknown;0;95;37;0;0;0;0;0;Falsches Üben von Xylophonmusik quält jeden größeren Zwerg.
3ac759c6-77e5-4a0d-8fd3-56231e6d97ea;430;Transmitter #245;49,7785256230749;6,61949860693877;0;0;0;0;HackRF;Unknown;0;90;51;0;0;0;0;0;Franz jagt im komplett verwahrlosten Taxi quer durch Bayern.
05d9a23e-8720-4784-a68d-cb37290070a1;-211;Transmitter #246;49,7857398261593;6,6600705488121;0;0;0;0;Unknown;OmniDirectional;0;100;23;0;0;0;0;0;The quick brown fox jumps over a lazy dog.
67148bbe-a28a-4a68-b7e7-5b237e8ed021;400;Transmitter #247;49,7886722341471;6,64708506380552;0;0;0;0;Unknown;Unknown;0;104;55;0;0;0;0;0;Vom Ödipuskomplex maßlos gequält, übt Wilfried zyklisches Jodeln.
de1dcad4-d936-45aa-9aed-bf2a94316f69;598;Transmitter #248;49,7603280990776;6,63585959057145;0;0;0;0;Unknown;OmniDirectional;0;102;55;0;0;0;0;0;The quick brown fox jumps over a lazy dog.
bfcf82ff-e009-4fb8-b5b1-ad0c7eb04706;762;Transmitter #249;49,7853534175591;6,64092418329382;0;0;0;0;TwinRx;OmniDirectional;0;98;63;0;0;0;0;0;The quick brown fox jumps over a lazy dog.
3fb304e9-e44a-48b9-b57f-6794669e5a96;88;Transmitter #250;49,7792419205201;6,6476562578175;0;0;0;0;TwinRx;Unknown;0;102;62;0;0;0;0;0;Franz jagt im komplett verwahrlosten Taxi quer durch Bayern.
b7a4c222-cf7f-4714-873d-5b278a92e845;345;Transmitter #251;49,7497358996764;6,64491775801183;0;0;0;0;TwinRx;Unknown;0;97;34;0;0;0;0;0;Falsches Üben von Xylophonmusik quält jeden größeren Zwerg.
05416937-c664-48a9-9f07-40e581e0913f;-988;Transmitter #252;49,7701202351804;6,64435591594533;0;0;0;0;TwinRx;Unknown;0;100;59;0;0;0;0;0;Vom Ödipuskomplex maßlos gequält, übt Wilfried zyklisches Jodeln.
d2d500a9-c45c-4744-a939-40665ff05ee9;-676;Transmitter #253;49,7704046341331;6,65872477912299;0;0;0;0;HackRF;OmniDirectional;0;96;42;0;0;0;0;0;Franz jagt im komplett verwahrlosten Taxi quer durch Bayern.
a670be3f-e7ca-426e-93b1-fccdd77ed81c;-786;Transmitter #254;49,7630451084286;6,62653477765472;0;0;0;0;Unknown;OmniDirectional;0;85;70;0;0;0;0;0;Falsches Üben von Xylophonmusik quält jeden größeren Zwerg.
7fcbc736-21b0-4a02-a414-a223415f3fdf;97;Transmitter #255;49,7585720265435;6,62332630516664;0;0;0;0;HackRF;OmniDirectional;0;104;46;0;0;0;0;0;The quick brown fox jumps over a lazy dog.
33bc4eb1-1970-4669-b29b-3c50ede2ab92;-92;Transmitter #256;49,783901911442;6,64664736377864;0;0;0;0;TwinRx;OmniDirectional;0;86;39;0;0;0;0;0;Falsches Üben von Xylophonmusik quält jeden größeren Zwerg.
74e71dcd-538a-42df-afd8-7e39673c215d;949;Transmitter #257;49,7515908441392;6,63947479675048;0;0;0;0;IdealSDR;Unknown;0;93;73;0;0;0;0;0;Franz jagt im komplett verwahrlosten Taxi quer durch Bayern.
aa7fe4aa-0bdf-4ed6-a2ac-ec131e785944;240;Transmitter #258;49,7750707491761;6,64216326809603;0;0;0;0;TwinRx;OmniDirectional;0;93;40;0;0;0;0;0;Franz jagt im komplett verwahrlosten Taxi quer durch Bayern.
d54f6416-69b6-42c7-9b21-cf6926477c56;273;Transmitter #259;49,777571495623;6,62152790125079;0;0;0;0;TwinRx;Unknown;0;93;28;0;0;0;0;0;Franz jagt im komplett verwahrlosten Taxi quer durch Bayern.
f3dd4e22-1bcd-47f4-b20c-d38bc25ec3db;952;Transmitter #260;49,7756774808976;6,65805966406984;0;0;0;0;HackRF;Unknown;0;103;73;0;0;0;0;0;Franz jagt im komplett verwahrlosten Taxi quer durch Bayern.
b358d3ba-38ae-4df6-ab79-eb8df7e8b740;869;Transmitter #261;49,7673669766361;6,66205440459417;0;0;0;0;IdealSDR;Unknown;0;97;77;0;0;0;0;0;Franz jagt im komplett verwahrlosten Taxi quer durch Bayern.
8fe6f897-bad9-4d6d-abf6-a05f566d6389;-279;Transmitter #262;49,7478455284944;6,6480833743412;0;0;0;0;TwinRx;OmniDirectional;0;104;72;0;0;0;0;0;Franz jagt im komplett verwahrlosten Taxi quer durch Bayern.
3e369829-1953-40b7-b98c-2fc207dfcafb;-342;Transmitter #263;49,7769488815687;6,65931477828399;0;0;0;0;HackRF;Unknown;0;101;24;0;0;0;0;0;Vom Ödipuskomplex maßlos gequält, übt Wilfried zyklisches Jodeln.
954eec71-a535-4f00-a083-deb5d6100484;711;Transmitter #264;49,7614416272544;6,62809467658791;0;0;0;0;HackRF;Unknown;0;93;24;0;0;0;0;0;Vom Ödipuskomplex maßlos gequält, übt Wilfried zyklisches Jodeln.
c9e34140-5852-48f9-964e-f13ce4d04af7;380;Transmitter #265;49,7711251371749;6,64449801600296;0;0;0;0;Unknown;OmniDirectional;0;90;44;0;0;0;0;0;Franz jagt im komplett verwahrlosten Taxi quer durch Bayern.
72f5946d-42ea-4115-94e0-019ffa5e8b84;349;Transmitter #266;49,7461986968853;6,62732074685284;0;0;0;0;TwinRx;Unknown;0;96;60;0;0;0;0;0;Falsches Üben von Xylophonmusik quält jeden größeren Zwerg.
8838a865-19ee-4ffc-9d0e-c9e3b0fc7e94;424;Transmitter #267;49,7871888337242;6,62258101022471;0;0;0;0;HackRF;OmniDirectional;0;93;16;0;0;0;0;0;Franz jagt im komplett verwahrlosten Taxi quer durch Bayern.
4fc7298e-73ca-4fc9-8daf-4b8e30dc0584;-543;Transmitter #268;49,7647253883949;6,63141313599037;0;0;0;0;IdealSDR;OmniDirectional;0;96;48;0;0;0;0;0;Falsches Üben von Xylophonmusik quält jeden größeren Zwerg.
eec1149f-5fac-409b-b5f4-ee37c2850fd2;695;Transmitter #269;49,794607821325;6,66385695624824;0;0;0;0;Unknown;OmniDirectional;0;104;48;0;0;0;0;0;Franz jagt im komplett verwahrlosten Taxi quer durch Bayern.
2ff58a0d-b44e-4497-82a7-93a24e3c0c63;-725;Transmitter #270;49,7888330427523;6,65418054114304;0;0;0;0;Unknown;Unknown;0;98;66;0;0;0;0;0;The quick brown fox jumps over a lazy dog.
8a0d7515-2e7b-4f62-ad42-b01e8436fbcf;193;Transmitter #271;49,7596581927656;6,64786169293251;0;0;0;0;TwinRx;OmniDirectional;0;103;53;0;0;0;0;0;Franz jagt im komplett verwahrlosten Taxi quer durch Bayern.
a419fc90-dc86-4c67-aad7-62f59f84731b;-145;Transmitter #272;49,7687408898457;6,65039569362565;0;0;0;0;IdealSDR;Unknown;0;91;56;0;0;0;0;0;Franz jagt im komplett verwahrlosten Taxi quer durch Bayern.
516bd40f-1e98-455f-b27c-048f5a16236c;-64;Transmitter #273;49,7607935125169;6,64919956423785;0;0;0;0;Unknown;Unknown;0;100;50;0;0;0;0;0;Falsches Üben von Xylophonmusik quält jeden größeren Zwerg.
ea8ecb10-607c-4dbd-8b2b-223c9dcf529f;-416;Transmitter #274;49,749369923106;6,62237939288033;0;0;0;0;IdealSDR;Unknown;0;88;49;0;0;0;0;0;Vom Ödipuskomplex maßlos gequält, übt Wilfried zyklisches Jodeln.
ca5374d7-03e5-4ee1-a1c4-e24cbe537166;168;Transmitter #275;49,7490675366357;6,64456909798778;0;0;0;0;IdealSDR;Unknown;0;101;57;0;0;0;0;0;Falsches Üben von Xylophonmusik quält jeden größeren Zwerg.
08d6274f-a196-44b9-addb-f2cd97f8a21d;-286;Transmitter #276;49,7819497259128;6,64010498338863;0;0;0;0;Unknown;OmniDirectional;0;93;20;0;0;0;0;0;Falsches Üben von Xylophonmusik quält jeden größeren Zwerg.
a7db2e44-e095-493e-8b06-159a590f3329;-596;Transmitter #277;49,7807707088089;6,63788684612521;0;0;0;0;HackRF;Unknown;0;85;54;0;0;0;0;0;Falsches Üben von Xylophonmusik quält jeden größeren Zwerg.
5f2b68ee-d6fd-4b47-b687-e00caa075601;423;Transmitter #278;49,7904691963756;6,63694995531219;0;0;0;0;IdealSDR;Unknown;0;93;51;0;0;0;0;0;The quick brown fox jumps over a lazy dog.
b513fe19-1b0e-49e1-b597-f0abc689f632;805;Transmitter #279;49,7533187964126;6,64055233925155;0;0;0;0;Unknown;Unknown;0;96;19;0;0;0;0;0;Vom Ödipuskomplex maßlos gequält, übt Wilfried zyklisches Jodeln.
884a7c1c-3c67-4395-a921-765b3127f018;267;Transmitter #280;49,7830029532112;6,63554624357533;0;0;0;0;Unknown;OmniDirectional;0;97;45;0;0;0;0;0;Falsches Üben von Xylophonmusik quält jeden größeren Zwerg.
561aa430-b659-4cda-a5b9-59dc7ad5cb72;859;Transmitter #281;49,761143606964;6,66397583391716;0;0;0;0;Unknown;Unknown;0;91;49;0;0;0;0;0;Vom Ödipuskomplex maßlos gequält, übt Wilfried zyklisches Jodeln.
99253ee7-6bdd-41e9-b850-70fc5317133b;-129;Transmitter #282;49,78485099988;6,63271936013969;0;0;0;0;IdealSDR;OmniDirectional;0;94;21;0;0;0;0;0;Falsches Üben von Xylophonmusik quält jeden größeren Zwerg.
0a32322b-4063-42ef-a7e7-05ac78f69c4f;-721;Transmitter #283;49,7571382383727;6,61670056353649;0;0;0;0;IdealSDR;Unknown;0;90;18;0;0;0;0;0;Vom Ödipuskomplex maßlos gequält, übt Wilfried zyklisches Jodeln.
ef38c0b5-610e-4226-b5ac-d16c1de843f2;133;Transmitter #284;49,7856839317174;6,64586850730058;0;0;0;0;IdealSDR;Unknown;0;99;46;0;0;0;0;0;Franz jagt im komplett verwahrlosten Taxi quer durch Bayern.
93ce36c9-c9ae-4d45-a6c8-5f411ad67183;-224;Transmitter #285;49,7751470879414;6,62775460363741;0;0;0;0;HackRF;OmniDirectional;0;97;49;0;0;0;0;0;Vom Ödipuskomplex maßlos gequält, übt Wilfried zyklisches Jodeln.
e3a6b0a3-0bd8-4d8f-a941-8fc6385745ea;195;Transmitter #286;49,7934340213738;6,63567247829678;0;0;0;0;Unknown;OmniDirectional;0;87;29;0;0;0;0;0;Franz jagt im komplett verwahrlosten Taxi quer durch Bayern.
6dc21648-a5a6-4a52-b697-7a04b644516c;164;Transmitter #287;49,7703227874563;6,65234613027081;0;0;0;0;IdealSDR;Unknown;0;93;73;0;0;0;0;0;Vom Ödipuskomplex maßlos gequält, übt Wilfried zyklisches Jodeln.
5e195f34-48a6-4492-b24a-f319edf1e7c6;-621;Transmitter #288;49,7642452230854;6,63402794561085;0;0;0;0;Unknown;Unknown;0;91;75;0;0;0;0;0;Vom Ödipuskomplex maßlos gequält, übt Wilfried zyklisches Jodeln.
83d8b16a-ca9c-425a-a704-068dc93388e1;-455;Transmitter #289;49,7593535785019;6,64729701785259;0;0;0;0;Unknown;OmniDirectional;0;99;41;0;0;0;0;0;The quick brown fox jumps over a lazy dog.
13c5654e-07b7-40df-b030-d5c3557b8a54;328;Transmitter #290;49,7676216433716;6,63932042859011;0;0;0;0;Unknown;Unknown;0;89;35;0;0;0;0;0;The quick brown fox jumps over a lazy dog.
93cfab35-8024-4f13-941a-cae2c641cbe4;49;Transmitter #291;49,7690384854064;6,64773451540993;0;0;0;0;IdealSDR;Unknown;0;94;43;0;0;0;0;0;Falsches Üben von Xylophonmusik quält jeden größeren Zwerg.
40894105-575e-4919-ac78-56eed6b3ac66;364;Transmitter #292;49,7766635784416;6,62787047825668;0;0;0;0;IdealSDR;OmniDirectional;0;98;72;0;0;0;0;0;The quick brown fox jumps over a lazy dog.
1ad77875-85b2-4667-b3d0-fe2be2cf4d1d;-946;Transmitter #293;49,7818209099609;6,64729542054124;0;0;0;0;Unknown;OmniDirectional;0;95;74;0;0;0;0;0;Falsches Üben von Xylophonmusik quält jeden größeren Zwerg.
4f14709b-a706-44c6-a221-92e47b242c76;-910;Transmitter #294;49,7579716727984;6,63435935623695;0;0;0;0;IdealSDR;Unknown;0;103;62;0;0;0;0;0;Falsches Üben von Xylophonmusik quält jeden größeren Zwerg.
38f98b99-cd9e-4664-91df-461c428ca0da;-973;Transmitter #295;49,79141478949;6,63330687881615;0;0;0;0;IdealSDR;Unknown;0;101;58;0;0;0;0;0;Falsches Üben von Xylophonmusik quält jeden größeren Zwerg.
a0d3d4c6-e515-4848-8323-829ac88ed9a3;600;Transmitter #296;49,7797290447883;6,61971930994653;0;0;0;0;TwinRx;OmniDirectional;0;92;26;0;0;0;0;0;Falsches Üben von Xylophonmusik quält jeden größeren Zwerg.
d72eeaec-a78b-4ad2-8d4d-130adf9e062d;89;Transmitter #297;49,7559991862065;6,66215536098576;0;0;0;0;IdealSDR;Unknown;0;93;10;0;0;0;0;0;Franz jagt im komplett verwahrlosten Taxi quer durch Bayern.
55685f0e-0b60-4a5b-bfd1-71dd209098dd;112;Transmitter #298;49,7851406300249;6,61866304688573;0;0;0;0;TwinRx;OmniDirectional;0;91;11;0;0;0;0;0;Vom Ödipuskomplex maßlos gequält, übt Wilfried zyklisches Jodeln.
2163ed68-b90e-4247-a5bb-0a01050ec38a;752;Transmitter #299;49,7590874006194;6,61843199057445;0;0;0;0;HackRF;OmniDirectional;0;98;52;0;0;0;0;0;Franz jagt im komplett verwahrlosten Taxi quer durch Bayern.
b8a2bef8-5c75-4e21-84f0-8a8b953411a9;-918;Transmitter #300;49,7872947794437;6,6230038589627;0;0;0;0;Unknown;OmniDirectional;0;91;38;0;0;0;0;0;Vom Ödipuskomplex maßlos gequält, übt Wilfried zyklisches Jodeln.
d3d19046-f791-4ee3-944a-fbfb45beb776;-974;Transmitter #301;49,7655217277069;6,64537987803839;0;0;0;0;TwinRx;Unknown;0;96;40;0;0;0;0;0;Vom Ödipuskomplex maßlos gequält, übt Wilfried zyklisches Jodeln.
4cc67d59-f474-461a-9dd1-b5d2ed5c6a2b;829;Transmitter #302;49,7626745354787;6,64803603265357;0;0;0;0;Unknown;Unknown;0;103;61;0;0;0;0;0;The quick brown fox jumps over a lazy dog.
160483a4-1aba-4399-8d5f-ed3588c0874c;327;Transmitter #303;49,7631425051191;6,65133355119807;0;0;0;0;IdealSDR;OmniDirectional;0;102;57;0;0;0;0;0;Falsches Üben von Xylophonmusik quält jeden größeren Zwerg.
f4a0ddf2-d920-4244-b69e-4de58ae0fa7b;200;Transmitter #304;49,7819265473893;6,62054279444778;0;0;0;0;TwinRx;OmniDirectional;0;89;53;0;0;0;0;0;Franz jagt im komplett verwahrlosten Taxi quer durch Bayern.
d0960bbd-bb24-4f29-a3b0-5fe93e44ed11;-213;Transmitter #305;49,7653336763564;6,65165360981689;0;0;0;0;TwinRx;Unknown;0;90;62;0;0;0;0;0;The quick brown fox jumps over a lazy dog.
9b46ee93-cea3-4fe1-80f9-ff1957421655;688;Transmitter #306;49,7682783269985;6,63613249802796;0;0;0;0;Unknown;OmniDirectional;0;99;43;0;0;0;0;0;Franz jagt im komplett verwahrlosten Taxi quer durch Bayern.
