PrimaryKey;Id;DeviceSource;StartTime;Name;Latitude;Longitude;Altitude;Roll;Pitch;Yaw;RxTxType;AntennaType;CenterFrequency_Hz;Bandwidth_Hz;Gain_dB;SignalToNoiseRatio_dB;XPos;YPos;ZPos;Remark
ad21141d-2de3-41a1-b1a1-a55af37380a5;0;Automatic;2;RFDevice #1RFDevice #1;47.6524377737497;9.3878173828125;183;-1;-60;29;QPSK;HyperLOG60200;9700000.37032474;19000.0216564336;28.9278236184864;70.3932288202426;53;-38;-57;Vom Ödipuskomplex maßlos gequält, übt Wilfried zyklisches Jodeln.Vom Ödipuskomplex maßlos gequält, übt Wilfried zyklisches Jodeln.
3ed51a6d-4e53-4033-b997-4fe669edc6fa;186;Automatic;2.5;RFDevice #2RFDevice #2;47.6181402493178;9.42701298249382;4980;-56;-53;9;SIN;SimradArgusRadar;9100000.30017137;13000.7667488031;100.430615877002;132.542622739236;-5;43;-69;The quick brown fox jumps over a lazy dog.The quick brown fox jumps over a lazy dog.
9cca01f4-10f2-41bf-ad09-85c5ae154d07;-191;Automatic;3.33333333333333;RFDevice #3RFDevice #3;47.701245638851;9.35585369759614;2616;-76;-69;32;QPSK;OmniDirectional;8700000.42943984;18000.05056044;23.1476614876407;14.6456381309059;10;32;45;Franz jagt im komplett verwahrlosten Taxi quer durch Bayern.Franz jagt im komplett verwahrlosten Taxi quer durch Bayern.
397dfe95-b1aa-4f82-b108-8228b8390f74;563;Automatic;4.25;RFDevice #4RFDevice #4;47.6249341856397;9.41125407098952;8058;-5;63;-55;GPSJammer;SimradArgusRadar;10000000.5557808;19000.2812272763;90.8077546916007;131.876530870272;-37;-25;58;The quick brown fox jumps over a lazy dog.The quick brown fox jumps over a lazy dog.
56349d9d-26c0-4f55-ab11-7c8c0c25d6bd;556;Automatic;5.2;RFDevice #5RFDevice #5;47.6568733966068;9.36429738084622;4339;-9;-9;51;IdealSDR;HyperLOG60200;9900000.6004137;11000.1945208484;70.0892019421278;82.020954806833;-66;-1;-36;Falsches Üben von Xylophonmusik quält jeden größeren Zwerg.Falsches Üben von Xylophonmusik quält jeden größeren Zwerg.
2529ffc6-9ac0-4448-bfda-aad3e0ab00ab;-76;Automatic;6.16666666666667;RFDevice #6RFDevice #6;47.6454819865329;9.3981789013652;8848;-38;27;-75;SIN;HyperLOG60200;10100000.8854513;15000.772012283;32.3800213063974;12.2262705868232;-44;26;5;Vom Ödipuskomplex maßlos gequält, übt Wilfried zyklisches Jodeln.Vom Ödipuskomplex maßlos gequält, übt Wilfried zyklisches Jodeln.
6133e4db-079a-49e6-8200-12dc07ceca0a;-120;Automatic;7.14285714285714;RFDevice #7RFDevice #7;47.6079993680914;9.42497064680194;9868;45;-58;-82;SIN;Unknown;10200000.5202361;15000.6264011937;101.331284294991;15.9040961283744;-33;-29;61;The quick brown fox jumps over a lazy dog.The quick brown fox jumps over a lazy dog.
f1928084-c5ad-4706-896e-7d204e46130b;-287;Automatic;8.125;RFDevice #8RFDevice #8;47.6704628093787;9.41230654689692;5039;45;-42;-82;TwinRx;OmniDirectional;8800000.92445454;12000.698835879;63.3184622578875;123.783190210715;29;-37;29;Falsches Üben von Xylophonmusik quält jeden größeren Zwerg.Falsches Üben von Xylophonmusik quält jeden größeren Zwerg.
2bef6738-165f-479a-b4fb-cea5eb26206d;-264;Automatic;9.11111111111111;RFDevice #9RFDevice #9;47.6431878200992;9.37105957357364;265;-13;-5;-7;FMBroadcast;OmniLOG30800;9100000.52258255;14000.5322213441;26.3825645672076;80.0636795466131;-24;29;-1;Vom Ödipuskomplex maßlos gequält, übt Wilfried zyklisches Jodeln.Vom Ödipuskomplex maßlos gequält, übt Wilfried zyklisches Jodeln.
9d4028b9-647f-4d37-b063-f60fb90b3204;307;Automatic;10.1;RFDevice #10RFDevice #10;47.6091166810699;9.37323675483252;138;-85;9;30;HackRF;OmniLOG30800;8600000.65483466;18000.9920676262;46.3047842086781;92.072519061655;62;-48;71;Falsches Üben von Xylophonmusik quält jeden größeren Zwerg.Falsches Üben von Xylophonmusik quält jeden größeren Zwerg.
5bfd5572-f1a1-4486-93ff-f53b99380db8;390;Automatic;11.0909090909091;RFDevice #11RFDevice #11;47.6434394537499;9.35676523301236;2711;-46;-83;-36;LTE;OmniLOG30800;8600000.86985219;12000.5310734303;22.4687343311816;87.3428666397663;-15;55;-30;The quick brown fox jumps over a lazy dog.The quick brown fox jumps over a lazy dog.
830211e9-59a5-4716-941b-bbe8b36c7279;-510;Automatic;12.0833333333333;RFDevice #12RFDevice #12;47.6140669023975;9.40945736790152;9774;-90;-40;-37;Unknown;HyperLOG60200;9400000.66892677;17000.1711638957;139.111646159604;112.638891298621;49;-56;-65;Falsches Üben von Xylophonmusik quält jeden größeren Zwerg.Falsches Üben von Xylophonmusik quält jeden größeren Zwerg.
7674f7a3-f44a-4cfb-8c3c-30e57484c983;-3;Automatic;13.0769230769231;RFDevice #13RFDevice #13;47.6729407946279;9.36667189971956;10817;12;-87;-38;AIS;HyperLOG60200;10300000.392303;10000.9348267833;62.8536255689588;114.353220673908;45;53;-21;The quick brown fox jumps over a lazy dog.The quick brown fox jumps over a lazy dog.
2dbba319-8a88-4ff9-878d-a2e78e0bdf70;249;Automatic;14.0714285714286;RFDevice #14RFDevice #14;47.6304070414011;9.40288900552088;1547;36;14;-75;FMBroadcast;HyperLOG60200;9000000.17806169;19000.2686577999;112.022739284217;81.6109486513822;57;41;72;Franz jagt im komplett verwahrlosten Taxi quer durch Bayern.Franz jagt im komplett verwahrlosten Taxi quer durch Bayern.
c9a38d7d-f7ea-4edd-a076-dd93565e17d7;-287;Automatic;15.0666666666667;RFDevice #15RFDevice #15;47.6617445159351;9.42426679431761;10096;-9;-32;76;LTE;OmniLOG30800;10300000.1362374;13000.78516768;136.982295014887;65.5726539397485;35;38;-6;Vom Ödipuskomplex maßlos gequält, übt Wilfried zyklisches Jodeln.Vom Ödipuskomplex maßlos gequält, übt Wilfried zyklisches Jodeln.
43309c89-5d71-49ca-bb70-11be1c2fae49;-974;Automatic;16.0625;RFDevice #16RFDevice #16;47.6032602456705;9.35832157236082;2768;26;-12;75;Iridium;HyperLOG60200;9500000.63701851;10000.0837787502;86.1152976104595;27.8523694872169;-64;-55;-1;Franz jagt im komplett verwahrlosten Taxi quer durch Bayern.Franz jagt im komplett verwahrlosten Taxi quer durch Bayern.
e4ca410b-8d37-4ad1-8941-69b87e032e36;212;Automatic;17.0588235294118;RFDevice #17RFDevice #17;47.640891582078;9.3561317210171;6950;-84;-66;29;LTE;OmniLOG30800;9300000.89429232;12000.1728319769;83.7454376685179;57.2405426545257;42;-53;62;Falsches Üben von Xylophonmusik quält jeden größeren Zwerg.Falsches Üben von Xylophonmusik quält jeden größeren Zwerg.
f0355472-10a3-4405-9a60-897f0173bf5f;701;Automatic;18.0555555555556;RFDevice #18RFDevice #18;47.6396487621368;9.40159226363235;3753;73;29;-20;LTE;OmniLOG30800;9400000.51822039;10000.3771147068;108.358992375601;30.1397797442692;19;-46;-12;Falsches Üben von Xylophonmusik quält jeden größeren Zwerg.Falsches Üben von Xylophonmusik quält jeden größeren Zwerg.
da21c66d-b020-4b86-9755-ac58af1e213b;206;Automatic;19.0526315789474;RFDevice #19RFDevice #19;47.6405111748507;9.3437761070933;11549;79;14;0;QPSK;SimradArgusRadar;8600000.68378264;17000.3800802987;77.37793300365;12.578375426856;36;22;0;The quick brown fox jumps over a lazy dog.The quick brown fox jumps over a lazy dog.
84f9193f-0271-4426-ae32-a1b53ae7a684;265;Automatic;20.05;RFDevice #20RFDevice #20;47.6113516886364;9.42558301328112;1514;-9;87;55;Iridium;OmniLOG30800;9900000.4310685;15000.652311079;51.0369656384163;14.958613019883;-74;28;-67;Falsches Üben von Xylophonmusik quält jeden größeren Zwerg.Falsches Üben von Xylophonmusik quält jeden größeren Zwerg.
79933a16-cfc4-48a0-98e8-df67c75613d0;325;Automatic;21.047619047619;RFDevice #21RFDevice #21;47.6934890795294;9.36536793274691;663;15;-31;-19;GPSJammer;SimradArgusRadar;9000000.10068788;17000.6057865338;44.0591038121186;131.712853884191;-71;66;-69;Vom Ödipuskomplex maßlos gequält, übt Wilfried zyklisches Jodeln.Vom Ödipuskomplex maßlos gequält, übt Wilfried zyklisches Jodeln.
f98a4a69-8925-4392-8fb7-e9cbeb017568;439;Automatic;22.0454545454545;RFDevice #22RFDevice #22;47.6942006690925;9.38521761600738;9423;-48;-86;46;LTE;HyperLOG60200;9800000.58466996;19000.1590407873;33.9342864937774;5.30816869312346;-41;7;19;The quick brown fox jumps over a lazy dog.The quick brown fox jumps over a lazy dog.
0d34bc9e-0b4c-4b7a-bcab-c19e0e83acb0;582;Automatic;23.0434782608696;RFDevice #23RFDevice #23;47.6266319767056;9.39910405155331;8286;73;-11;18;B200mini;OmniDirectional;8500000.62547319;10000.1013061479;76.6137310944562;60.6321219176204;-65;-71;-13;Falsches Üben von Xylophonmusik quält jeden größeren Zwerg.Falsches Üben von Xylophonmusik quält jeden größeren Zwerg.
34bf8706-c4ca-462c-a7c8-2e42277c0caf;401;Automatic;24.0416666666667;RFDevice #24RFDevice #24;47.6798728751449;9.39586242884772;12298;59;-23;10;Reserved;Unknown;8800000.09013361;11000.0442430461;101.53587939522;68.6182354961607;55;4;-45;Falsches Üben von Xylophonmusik quält jeden größeren Zwerg.Falsches Üben von Xylophonmusik quält jeden größeren Zwerg.
d89c5fa8-f79a-43ad-8f13-a4bd320c7a16;-18;Automatic;25.04;RFDevice #25RFDevice #25;47.692580123318;9.34529791698208;9668;-85;61;56;NFMRadio;HyperLOG60200;9300000.37792335;19000.8153026955;69.677031346912;90.1369548962158;53;-73;-10;Vom Ödipuskomplex maßlos gequält, übt Wilfried zyklisches Jodeln.Vom Ödipuskomplex maßlos gequält, übt Wilfried zyklisches Jodeln.
df7eb33c-266f-4703-b265-a5419152d945;418;Automatic;26.0384615384615;RFDevice #26RFDevice #26;47.6732783748935;9.34915124970085;8474;-86;-50;4;QPSK;HyperLOG60200;9200000.50059341;19000.0575459576;46.3580539293392;84.3395784279981;29;24;33;Vom Ödipuskomplex maßlos gequält, übt Wilfried zyklisches Jodeln.Vom Ödipuskomplex maßlos gequält, übt Wilfried zyklisches Jodeln.
e1f5a3bf-08aa-4b72-ad55-af2aa22445f9;997;Automatic;27.037037037037;RFDevice #27RFDevice #27;47.6614850104433;9.41416383452078;404;68;80;60;Iridium;OmniLOG30800;10100000.0563355;11000.0936121792;41.433577293732;134.176906568546;19;-28;7;Vom Ödipuskomplex maßlos gequält, übt Wilfried zyklisches Jodeln.Vom Ödipuskomplex maßlos gequält, übt Wilfried zyklisches Jodeln.
37fb7a17-1c68-4d72-9b67-b47ef2faac7e;-366;Automatic;28.0357142857143;RFDevice #28RFDevice #28;47.6738062079932;9.34840325834723;7881;1;26;-61;QPSK;SimradArgusRadar;10300000.9861875;13000.4179289129;123.592377928361;62.9364855205344;-56;-74;-44;The quick brown fox jumps over a lazy dog.The quick brown fox jumps over a lazy dog.
cdd3bf91-49a8-4873-822b-75ddbd67100b;-387;Automatic;29.0344827586207;RFDevice #29RFDevice #29;47.6489618823917;9.35558339740046;9302;35;-30;-33;LTE;OmniDirectional;9300000.45151055;13000.8634766111;64.0995603492947;74.929983009086;-42;-59;62;Franz jagt im komplett verwahrlosten Taxi quer durch Bayern.Franz jagt im komplett verwahrlosten Taxi quer durch Bayern.
e13bc193-468c-4180-bff9-6929f1545406;-854;Automatic;30.0333333333333;RFDevice #30RFDevice #30;47.6307786329153;9.3713163038406;12156;86;-77;71;Reserved;HyperLOG60200;9700000.11275923;15000.1205125251;83.718764662146;82.8423276039969;69;69;9;Vom Ödipuskomplex maßlos gequält, übt Wilfried zyklisches Jodeln.Vom Ödipuskomplex maßlos gequält, übt Wilfried zyklisches Jodeln.
f371aac6-96c8-40ed-8d1f-38d197cc48e7;970;Automatic;31.0322580645161;RFDevice #31RFDevice #31;47.7011926191923;9.36466425828489;9739;-72;-45;-85;GPSJammer;Unknown;8800000.38597384;18000.9964615731;64.2114968915523;104.498728339793;30;37;66;Falsches Üben von Xylophonmusik quält jeden größeren Zwerg.Falsches Üben von Xylophonmusik quält jeden größeren Zwerg.
fc3204ec-0b4f-4376-bfdc-f9dee67c7b30;876;Automatic;32.03125;RFDevice #32RFDevice #32;47.6470405986577;9.40484492670141;1819;24;78;-67;Reserved;Unknown;8500000.51032948;18000.4481593373;24.3549246705859;37.6890471464438;-22;34;30;Vom Ödipuskomplex maßlos gequält, übt Wilfried zyklisches Jodeln.Vom Ödipuskomplex maßlos gequält, übt Wilfried zyklisches Jodeln.
1ef660f8-028f-4a11-a522-f25bdf7af3c9;-742;Automatic;33.030303030303;RFDevice #33RFDevice #33;47.664326499415;9.42735314005499;8839;60;80;-12;NFMRadio;Unknown;10400000.0382035;18000.0369985965;70.3551189887128;41.3389764578729;50;-3;15;Falsches Üben von Xylophonmusik quält jeden größeren Zwerg.Falsches Üben von Xylophonmusik quält jeden größeren Zwerg.
1e1378cf-1437-467f-a629-e970ab1db8bc;140;Automatic;34.0294117647059;RFDevice #34RFDevice #34;47.6104926824211;9.40748251416705;9440;-48;-71;27;FMBroadcast;HyperLOG60200;8900000.23409809;14000.9786841301;120.102776364471;80.4206186721197;55;-14;-28;The quick brown fox jumps over a lazy dog.The quick brown fox jumps over a lazy dog.
cb441ccb-2c8c-4e5b-bff9-1af0d37563f9;518;Automatic;35.0285714285714;RFDevice #35RFDevice #35;47.6355323357731;9.373104053985;5083;-73;-26;-10;B200mini;Unknown;8900000.52255241;18000.6676540816;60.9518133182786;21.5451985129831;16;44;-72;The quick brown fox jumps over a lazy dog.The quick brown fox jumps over a lazy dog.
c8c8517b-5e2b-4705-ae08-6e9f697aa86c;-131;Automatic;36.0277777777778;RFDevice #36RFDevice #36;47.639243159281;9.37782504893374;9016;-59;80;-24;LTE;SimradArgusRadar;9200000.25476049;18000.0794564761;32.0551938675601;23.3266192843796;-37;-7;73;The quick brown fox jumps over a lazy dog.The quick brown fox jumps over a lazy dog.
79666339-a1b6-4c25-82c6-8db49a078a59;-721;Automatic;37.027027027027;RFDevice #37RFDevice #37;47.6566234361702;9.41564037137563;6421;-67;-18;52;NFMRadio;SimradArgusRadar;9500000.74133204;19000.9032451072;50.0303742871761;124.099802063825;2;-13;15;Falsches Üben von Xylophonmusik quält jeden größeren Zwerg.Falsches Üben von Xylophonmusik quält jeden größeren Zwerg.
0a2153b7-8651-40e2-b7c9-f190e481528c;841;Automatic;38.0263157894737;RFDevice #38RFDevice #38;47.69892085868;9.37425704399889;8252;-53;-20;9;QPSK;SimradArgusRadar;10300000.4407146;18000.1241060603;7.11613342916413;23.2786257966788;-28;-24;-34;Franz jagt im komplett verwahrlosten Taxi quer durch Bayern.Franz jagt im komplett verwahrlosten Taxi quer durch Bayern.
f100e890-1084-429e-a64c-c436a2a6eb5a;602;Automatic;39.025641025641;RFDevice #39RFDevice #39;47.6669839978356;9.37588053354438;10513;-84;-75;85;GPSJammer;HyperLOG60200;8500000.5337774;15000.1631657026;10.6267980726561;68.6899234283203;-69;-6;9;Falsches Üben von Xylophonmusik quält jeden größeren Zwerg.Falsches Üben von Xylophonmusik quält jeden größeren Zwerg.
b525f1db-9693-41d8-9b09-82c64e2a587e;660;Automatic;40.025;RFDevice #40RFDevice #40;47.7008187804433;9.41702591147237;1504;74;-44;82;AIS;OmniLOG30800;9500000.64725838;13000.128307703;102.980282294555;115.192942905795;41;13;-6;Falsches Üben von Xylophonmusik quält jeden größeren Zwerg.Falsches Üben von Xylophonmusik quält jeden größeren Zwerg.
687b9363-01a3-4c4f-967e-76fb560817fa;-822;Automatic;41.0243902439024;RFDevice #41RFDevice #41;47.6164551874758;9.41378162425289;2808;-26;-61;-48;TwinRx;OmniLOG30800;9800000.23886075;13000.4604892859;120.27111685149;102.078672321084;-65;2;35;The quick brown fox jumps over a lazy dog.The quick brown fox jumps over a lazy dog.
5e4e8832-a4b0-4734-9966-ddacdc8a0787;510;Automatic;42.0238095238095;RFDevice #42RFDevice #42;47.6419360505438;9.38470474434872;9625;-78;-60;-16;SIN;SimradArgusRadar;9100000.37062451;10000.8782823616;65.8645188477191;58.3408400003523;21;57;-24;Vom Ödipuskomplex maßlos gequält, übt Wilfried zyklisches Jodeln.Vom Ödipuskomplex maßlos gequält, übt Wilfried zyklisches Jodeln.
3976248e-5013-4954-8ea9-95e12a68c59f;924;Automatic;43.0232558139535;RFDevice #43RFDevice #43;47.6616633248395;9.3576924093393;7613;-8;-57;-9;B200mini;OmniLOG30800;9300000.35186794;11000.9646189841;138.30925036469;47.299908678187;-64;-61;48;The quick brown fox jumps over a lazy dog.The quick brown fox jumps over a lazy dog.
df2fc2a8-f282-4d89-a7ed-e353867b3f14;-483;Automatic;44.0227272727273;RFDevice #44RFDevice #44;47.6055054894034;9.37926887690157;10988;-60;83;85;IdealSDR;OmniDirectional;9700000.41057572;11000.2479747004;135.877741747479;84.8993539479092;13;3;-28;Falsches Üben von Xylophonmusik quält jeden größeren Zwerg.Falsches Üben von Xylophonmusik quält jeden größeren Zwerg.
16a2e687-1bd9-43c6-9f27-263e81c523e2;-147;Automatic;45.0222222222222;RFDevice #45RFDevice #45;47.615910428799;9.34007786817488;5691;1;-31;-43;QPSK;OmniLOG30800;9300000.13137097;15000.9259437327;135.663853782538;111.180737961168;6;7;44;Franz jagt im komplett verwahrlosten Taxi quer durch Bayern.Franz jagt im komplett verwahrlosten Taxi quer durch Bayern.
7d2ca739-b976-4834-b2f0-38cfebdb9bdb;-263;Automatic;46.0217391304348;RFDevice #46RFDevice #46;47.6096664200873;9.37340149606372;1355;22;-59;-65;IdealSDR;OmniLOG30800;10200000.9412727;13000.5118007099;110.440423219204;2.14995766112113;38;-57;-9;Falsches Üben von Xylophonmusik quält jeden größeren Zwerg.Falsches Üben von Xylophonmusik quält jeden größeren Zwerg.
a250d877-ec1d-430e-a3d4-43de96dc5279;272;Automatic;47.0212765957447;RFDevice #47RFDevice #47;47.6338668989699;9.4110964073908;3226;-62;-34;70;HackRF;SimradArgusRadar;9100000.62400617;19000.3620200513;62.0993632195049;24.1459126040088;24;71;22;Franz jagt im komplett verwahrlosten Taxi quer durch Bayern.Franz jagt im komplett verwahrlosten Taxi quer durch Bayern.
b92b55a1-f641-45c8-9efb-ee45897507d9;-989;Automatic;48.0208333333333;RFDevice #48RFDevice #48;47.6279644454087;9.35605357173748;4561;85;18;-60;TwinRx;OmniDirectional;10300000.9289417;14000.2191195126;7.9169002393805;45.6512543604017;69;57;47;Franz jagt im komplett verwahrlosten Taxi quer durch Bayern.Franz jagt im komplett verwahrlosten Taxi quer durch Bayern.
2234ce1d-0991-4bf4-bda0-3a8ed33f020b;135;Automatic;49.0204081632653;RFDevice #49RFDevice #49;47.6296928908174;9.33884029160301;5516;-18;77;14;HackRF;SimradArgusRadar;10400000.9859267;10000.3656103394;6.97611392474552;11.6281024942305;-71;-10;70;Falsches Üben von Xylophonmusik quält jeden größeren Zwerg.Falsches Üben von Xylophonmusik quält jeden größeren Zwerg.
cd3dced8-41c0-499b-93bb-5c30a501b24c;-760;Automatic;50.02;RFDevice #50RFDevice #50;47.6107226796557;9.43374750560426;734;17;40;-63;LTE;SimradArgusRadar;9000000.1864469;16000.9214790486;18.1803785628548;47.43434552822;0;-40;69;Vom Ödipuskomplex maßlos gequält, übt Wilfried zyklisches Jodeln.Vom Ödipuskomplex maßlos gequält, übt Wilfried zyklisches Jodeln.
f1d40136-f807-4f09-a4ed-c881bfb7c705;-434;Automatic;51.0196078431373;RFDevice #51RFDevice #51;47.6972751213051;9.34957976432599;449;39;-63;-36;B200mini;SimradArgusRadar;9700000.58836108;11000.3347465798;111.145239942309;109.303678593274;47;-48;-18;Franz jagt im komplett verwahrlosten Taxi quer durch Bayern.Franz jagt im komplett verwahrlosten Taxi quer durch Bayern.
67034099-8f91-480f-9812-71f980f31e59;894;Automatic;52.0192307692308;RFDevice #52RFDevice #52;47.6555847416251;9.3385676394453;3743;26;82;-20;HackRF;HyperLOG60200;9700000.15088742;16000.5511684574;138.021855504728;11.0516465083005;-72;-25;68;Falsches Üben von Xylophonmusik quält jeden größeren Zwerg.Falsches Üben von Xylophonmusik quält jeden größeren Zwerg.
34fd91a4-4052-476f-9ed7-69df6475e56c;81;Automatic;53.0188679245283;RFDevice #53RFDevice #53;47.6118825288603;9.40953960906329;4351;-2;-25;-70;NFMRadio;OmniDirectional;9200000.90186622;16000.9495340199;73.7018130122227;75.321712407899;3;-47;-56;Vom Ödipuskomplex maßlos gequält, übt Wilfried zyklisches Jodeln.Vom Ödipuskomplex maßlos gequält, übt Wilfried zyklisches Jodeln.
c7625cca-e5f8-4f6b-bfc3-82cda2197980;596;Automatic;54.0185185185185;RFDevice #54RFDevice #54;47.6207931629072;9.42073672436314;10636;-68;39;-90;LTE;OmniLOG30800;9900000.98580332;16000.5222470716;29.1738899695565;123.846705800317;-29;22;-20;Franz jagt im komplett verwahrlosten Taxi quer durch Bayern.Franz jagt im komplett verwahrlosten Taxi quer durch Bayern.
d2ad1354-aa74-4aa1-8ac8-f1ebdd351283;114;Automatic;55.0181818181818;RFDevice #55RFDevice #55;47.6471001723826;9.43293046348035;8054;-39;15;6;HackRF;HyperLOG60200;9800000.41852664;16000.0128159835;19.8015523081653;35.2708630586373;59;68;62;Franz jagt im komplett verwahrlosten Taxi quer durch Bayern.Franz jagt im komplett verwahrlosten Taxi quer durch Bayern.
429a2607-02a1-43eb-9c1a-9d5618a5f76b;-340;Automatic;56.0178571428571;RFDevice #56RFDevice #56;47.6827341838252;9.33841209397679;9943;38;0;8;Reserved;Unknown;10300000.4320959;12000.0755158491;104.551634803671;31.8841731491891;65;-59;1;Franz jagt im komplett verwahrlosten Taxi quer durch Bayern.Franz jagt im komplett verwahrlosten Taxi quer durch Bayern.
eed91ce5-a6d1-471d-855e-9e004523845b;495;Automatic;57.0175438596491;RFDevice #57RFDevice #57;47.6089158415661;9.35219865672494;8887;23;-4;18;IdealSDR;HyperLOG60200;8700000.63225339;11000.7764661223;68.2963334118465;18.2330356367086;37;11;63;Vom Ödipuskomplex maßlos gequält, übt Wilfried zyklisches Jodeln.Vom Ödipuskomplex maßlos gequält, übt Wilfried zyklisches Jodeln.
bd6749d6-c2a3-48ad-a9e9-3a611ca130c8;8;Automatic;58.0172413793103;RFDevice #58RFDevice #58;47.649305805942;9.34657150172105;4920;-73;59;83;TwinRx;Unknown;8600000.81680187;19000.8582785399;66.1176671330434;50.4706723124118;-60;-9;11;Falsches Üben von Xylophonmusik quält jeden größeren Zwerg.Falsches Üben von Xylophonmusik quält jeden größeren Zwerg.
d7e5b389-c7aa-4249-bf22-b06880388fea;475;Automatic;59.0169491525424;RFDevice #59RFDevice #59;47.681304001619;9.34206325682078;5698;-78;34;26;SIN;SimradArgusRadar;9600000.82026206;13000.3662546479;101.649735165597;2.28719883751459;-61;68;0;The quick brown fox jumps over a lazy dog.The quick brown fox jumps over a lazy dog.
5595e400-ea22-4bee-b109-018eb70c5ae8;325;Automatic;60.0166666666667;RFDevice #60RFDevice #60;47.6661402834247;9.36255279880703;11327;4;13;-81;FMBroadcast;Unknown;9000000.92520342;19000.3248573245;15.2475930644421;18.5009546501101;-14;-69;-52;Falsches Üben von Xylophonmusik quält jeden größeren Zwerg.Falsches Üben von Xylophonmusik quält jeden größeren Zwerg.
3635841e-dfb4-4e6f-ab58-ef20f4f124fb;261;Automatic;61.0163934426229;RFDevice #61RFDevice #61;47.6485237955167;9.43263239720595;5041;62;83;88;LTE;HyperLOG60200;10100000.2365141;11000.9146961481;21.6410323263337;63.9964717407694;-69;-9;41;The quick brown fox jumps over a lazy dog.The quick brown fox jumps over a lazy dog.
b023f77b-2672-4862-867c-20eccb1cffbc;809;Automatic;62.0161290322581;RFDevice #62RFDevice #62;47.6055718767075;9.38160544202839;6423;-15;-3;-11;AIS;OmniDirectional;9300000.50943025;13000.6431990949;26.4270121154501;52.7195282893812;-55;-61;68;The quick brown fox jumps over a lazy dog.The quick brown fox jumps over a lazy dog.
867ce1e8-e7d2-452c-9f32-80aa96d346d8;958;Automatic;63.015873015873;RFDevice #63RFDevice #63;47.6489542102495;9.39821616185848;5454;83;73;-65;Unknown;OmniDirectional;9100000.84720096;14000.1735726121;70.958982347026;30.6715741039587;36;-15;42;Falsches Üben von Xylophonmusik quält jeden größeren Zwerg.Falsches Üben von Xylophonmusik quält jeden größeren Zwerg.
d0adc5e7-7629-4dff-9638-abd74e07994d;-468;Automatic;64.015625;RFDevice #64RFDevice #64;47.6761102234426;9.41660066781509;6782;27;-26;-20;Unknown;SimradArgusRadar;8900000.94081301;17000.9580160128;46.0545675456778;131.698105977242;-67;43;28;The quick brown fox jumps over a lazy dog.The quick brown fox jumps over a lazy dog.
ca176a82-187d-41a3-8be6-9176f4b03a80;732;Automatic;65.0153846153846;RFDevice #65RFDevice #65;47.6423697063257;9.4116386976204;2705;12;-35;-56;NFMRadio;OmniLOG30800;10300000.1912866;18000.80324835;1.7345265870609;27.4685654949716;-36;-40;44;Franz jagt im komplett verwahrlosten Taxi quer durch Bayern.Franz jagt im komplett verwahrlosten Taxi quer durch Bayern.
852ae7db-bc82-42ec-b529-d673ca37ef7d;770;Automatic;66.0151515151515;RFDevice #66RFDevice #66;47.6513633245201;9.41224920815995;4863;-12;-38;40;Unknown;SimradArgusRadar;8900000.57536569;13000.6071390526;67.3743043515712;102.523980053851;41;39;-5;The quick brown fox jumps over a lazy dog.The quick brown fox jumps over a lazy dog.
abd7e810-27a7-4e65-84e9-f46ad1b624c1;869;Automatic;67.0149253731343;RFDevice #67RFDevice #67;47.6752443710052;9.42907248029544;9180;57;74;-8;FMBroadcast;HyperLOG60200;8500000.06717062;17000.3162797584;27.4549373115669;1.45806607997886;23;-41;28;Franz jagt im komplett verwahrlosten Taxi quer durch Bayern.Franz jagt im komplett verwahrlosten Taxi quer durch Bayern.
fe41da26-547f-423a-b5b8-66d0ba05b021;424;Automatic;68.0147058823529;RFDevice #68RFDevice #68;47.6107638635316;9.3500102214572;11970;88;17;-65;SIN;OmniDirectional;8900000.41549404;13000.08691011;34.032504561838;70.187588820787;-31;5;33;Franz jagt im komplett verwahrlosten Taxi quer durch Bayern.Franz jagt im komplett verwahrlosten Taxi quer durch Bayern.
254ac9ce-8179-4e81-a425-fbb703bca859;71;Automatic;69.0144927536232;RFDevice #69RFDevice #69;47.6310304060316;9.43314024929205;10667;-7;2;-82;B200mini;Unknown;8500000.24244827;18000.7437108144;111.991623745296;134.847748955175;3;59;49;The quick brown fox jumps over a lazy dog.The quick brown fox jumps over a lazy dog.
1f599816-71a0-42b5-b2b4-3f439bba7458;520;Automatic;70.0142857142857;RFDevice #70RFDevice #70;47.6681133057366;9.41112164767613;769;-62;76;19;IdealSDR;OmniLOG30800;9600000.98754965;10000.2978636521;100.327995872743;19.5996367403304;-24;50;-14;The quick brown fox jumps over a lazy dog.The quick brown fox jumps over a lazy dog.
1b31299e-9d13-4de1-bc22-040509151149;427;Automatic;71.0140845070423;RFDevice #71RFDevice #71;47.6540935590242;9.4219170526993;9638;44;79;62;QPSK;OmniDirectional;8800000.70292149;17000.6680694845;56.592946689852;19.8437781146931;-38;37;37;Vom Ödipuskomplex maßlos gequält, übt Wilfried zyklisches Jodeln.Vom Ödipuskomplex maßlos gequält, übt Wilfried zyklisches Jodeln.
7fe8568c-7dbc-46fa-8732-f9b598bd274b;-519;Automatic;72.0138888888889;RFDevice #72RFDevice #72;47.6686334232014;9.43237664492082;7418;20;-73;51;B200mini;HyperLOG60200;9500000.34853222;11000.599793637;74.432969591782;43.4020560725602;56;14;-72;Vom Ödipuskomplex maßlos gequält, übt Wilfried zyklisches Jodeln.Vom Ödipuskomplex maßlos gequält, übt Wilfried zyklisches Jodeln.
f33f6eda-9d0d-4ebc-af61-ef59100345c7;463;Automatic;73.013698630137;RFDevice #73RFDevice #73;47.6514808868589;9.43077428412761;4973;17;65;-52;NFMRadio;OmniDirectional;9500000.95697299;15000.7923828036;32.3580804087026;121.601674050839;-48;-27;-35;Falsches Üben von Xylophonmusik quält jeden größeren Zwerg.Falsches Üben von Xylophonmusik quält jeden größeren Zwerg.
01ba654a-b3e3-4750-97a8-bd1b0334b929;210;Automatic;74.0135135135135;RFDevice #74RFDevice #74;47.6741830401526;9.37633628774831;1903;-75;4;-57;NFMRadio;Unknown;8600000.22481634;18000.5921905914;127.872047504351;72.4354872044341;15;21;-70;Vom Ödipuskomplex maßlos gequält, übt Wilfried zyklisches Jodeln.Vom Ödipuskomplex maßlos gequält, übt Wilfried zyklisches Jodeln.
2914c9e1-8e3b-4c03-9cd6-dded1091dcd8;-837;Automatic;75.0133333333333;RFDevice #75RFDevice #75;47.6899493079877;9.37834431787046;202;-89;11;-76;TwinRx;Unknown;9100000.46228577;10000.4137379329;93.4242326982432;121.769182048165;-15;9;-20;Falsches Üben von Xylophonmusik quält jeden größeren Zwerg.Falsches Üben von Xylophonmusik quält jeden größeren Zwerg.
54b92c36-1f17-4197-9a6c-97edaa6cc35e;915;Automatic;76.0131578947368;RFDevice #76RFDevice #76;47.6563470617257;9.39406242189288;8057;65;38;-21;IdealSDR;SimradArgusRadar;9200000.57621843;17000.353229067;69.4793912165237;92.7786789852095;2;-55;58;The quick brown fox jumps over a lazy dog.The quick brown fox jumps over a lazy dog.
5191c07c-3225-47e2-87bf-fb5171244c74;701;Automatic;77.012987012987;RFDevice #77RFDevice #77;47.6413354876469;9.37895741434355;489;-57;-53;53;SIN;SimradArgusRadar;8600000.71106208;12000.7926844199;106.11127553932;82.2575621140458;24;49;59;Franz jagt im komplett verwahrlosten Taxi quer durch Bayern.Franz jagt im komplett verwahrlosten Taxi quer durch Bayern.
73771fc2-d69b-4409-b0a0-33fd50f5f5d2;-256;Automatic;78.0128205128205;RFDevice #78RFDevice #78;47.6350761351863;9.37692416519351;8481;22;51;81;Reserved;Unknown;9700000.06282422;12000.2275988018;58.9028550595524;125.956578570864;29;21;-43;Vom Ödipuskomplex maßlos gequält, übt Wilfried zyklisches Jodeln.Vom Ödipuskomplex maßlos gequält, übt Wilfried zyklisches Jodeln.
4e4e11fb-a009-46c2-9d7c-6141cd621785;796;Automatic;79.0126582278481;RFDevice #79RFDevice #79;47.6388325382729;9.39784599890002;3861;78;70;64;B200mini;OmniLOG30800;9700000.95102183;19000.849868297;65.8299665981112;35.345729638052;21;34;-2;Falsches Üben von Xylophonmusik quält jeden größeren Zwerg.Falsches Üben von Xylophonmusik quält jeden größeren Zwerg.
6f277504-2aa1-4a09-a399-82f83b5517d5;-654;Automatic;80.0125;RFDevice #80RFDevice #80;47.666871184916;9.3792510952295;10819;6;-36;59;AIS;OmniLOG30800;9300000.15690794;16000.449164801;16.945759642844;31.9806442018508;22;-34;-4;Franz jagt im komplett verwahrlosten Taxi quer durch Bayern.Franz jagt im komplett verwahrlosten Taxi quer durch Bayern.
cb94a8fc-413d-46e9-9ec5-82716ce278cf;-138;Automatic;81.0123456790123;RFDevice #81RFDevice #81;47.6710292240063;9.38723429331995;9942;-27;42;44;Iridium;HyperLOG60200;10400000.4061257;17000.0987190488;14.911904098425;8.16159475416019;1;28;53;The quick brown fox jumps over a lazy dog.The quick brown fox jumps over a lazy dog.
f0c0ecc4-b289-40e1-b675-9fbb6c4607c7;-730;Automatic;82.0121951219512;RFDevice #82RFDevice #82;47.616911611743;9.40389414535187;4185;-19;26;15;AIS;Unknown;9700000.6977646;13000.8573473561;17.7994967465287;60.875433599984;21;-68;-25;Falsches Üben von Xylophonmusik quält jeden größeren Zwerg.Falsches Üben von Xylophonmusik quält jeden größeren Zwerg.
788246cd-5a3b-4ac2-9cfe-77b3065364a1;-752;Automatic;83.0120481927711;RFDevice #83RFDevice #83;47.6286599512404;9.4116301576485;11318;-48;-80;11;SIN;Unknown;9200000.56861637;17000.236409315;5.30113854971767;125.460746260109;-48;-15;44;Franz jagt im komplett verwahrlosten Taxi quer durch Bayern.Franz jagt im komplett verwahrlosten Taxi quer durch Bayern.
c855a060-05d3-4001-88fe-6cbe255d5a3a;878;Automatic;84.0119047619048;RFDevice #84RFDevice #84;47.6064580797073;9.37023278113101;10676;76;-76;42;IdealSDR;OmniLOG30800;9100000.80073653;15000.586370033;117.845978800601;27.4222979263506;65;-32;-19;Vom Ödipuskomplex maßlos gequält, übt Wilfried zyklisches Jodeln.Vom Ödipuskomplex maßlos gequält, übt Wilfried zyklisches Jodeln.
f3f2a7ff-a5f2-428d-b8fd-eb15e3964307;-212;Automatic;85.0117647058824;RFDevice #85RFDevice #85;47.6775741768722;9.37033703067923;7258;-73;-45;-27;QPSK;OmniDirectional;9300000.32178763;10000.5361833179;109.556661615873;8.17622681296255;-14;-10;-2;Vom Ödipuskomplex maßlos gequält, übt Wilfried zyklisches Jodeln.Vom Ödipuskomplex maßlos gequält, übt Wilfried zyklisches Jodeln.
53392fbe-dab2-40bf-b7b9-90354da8581a;-897;Automatic;86.0116279069767;RFDevice #86RFDevice #86;47.6506094922838;9.41982374688704;1202;23;64;25;GPSJammer;Unknown;10000000.5617627;17000.5251752685;39.8489639711794;95.7596140083669;-59;-35;48;The quick brown fox jumps over a lazy dog.The quick brown fox jumps over a lazy dog.
a1bc2401-a113-4ece-907a-bbdf3bc10e22;-164;Automatic;87.0114942528736;RFDevice #87RFDevice #87;47.6957383726762;9.35610688101421;8529;-80;50;-7;NFMRadio;Unknown;8700000.90630923;18000.4509095258;79.3130414133487;133.838201390038;-38;70;71;Franz jagt im komplett verwahrlosten Taxi quer durch Bayern.Franz jagt im komplett verwahrlosten Taxi quer durch Bayern.
d0bda767-60c0-4742-9535-acc7806cf1b5;549;Automatic;88.0113636363636;RFDevice #88RFDevice #88;47.6734526497712;9.42399870778256;6772;-60;59;16;LTE;OmniLOG30800;9400000.22358241;13000.6183707191;107.77411530296;27.0331866368806;25;17;-12;The quick brown fox jumps over a lazy dog.The quick brown fox jumps over a lazy dog.
0d06e520-abed-4fcb-9357-ea2258e34a68;-784;Automatic;89.0112359550562;RFDevice #89RFDevice #89;47.6862664637383;9.41692088773898;4051;-15;-30;4;LTE;HyperLOG60200;9100000.43783376;18000.0914068739;80.213912515535;27.2129551820517;-14;-41;-35;Vom Ödipuskomplex maßlos gequält, übt Wilfried zyklisches Jodeln.Vom Ödipuskomplex maßlos gequält, übt Wilfried zyklisches Jodeln.
5b10cf1c-238d-426f-8689-8dc5f12cfa4d;-637;Automatic;90.0111111111111;RFDevice #90RFDevice #90;47.6091318590435;9.37325074399609;5173;-81;26;25;TwinRx;OmniLOG30800;9300000.35016561;19000.3122887198;6.04705269962878;73.2109223870611;69;-48;64;Vom Ödipuskomplex maßlos gequält, übt Wilfried zyklisches Jodeln.Vom Ödipuskomplex maßlos gequält, übt Wilfried zyklisches Jodeln.
ff3d5751-61c8-4ee2-9314-f00deb8c70c1;237;Automatic;91.010989010989;RFDevice #91RFDevice #91;47.6039334752906;9.39637988394059;4162;-62;81;-67;IdealSDR;OmniDirectional;8800000.84193936;17000.4949837339;134.715951804405;81.512133694958;-12;35;21;Falsches Üben von Xylophonmusik quält jeden größeren Zwerg.Falsches Üben von Xylophonmusik quält jeden größeren Zwerg.
ffd2bace-0b4c-438a-900a-0ea673b4bb9d;-690;Automatic;92.0108695652174;RFDevice #92RFDevice #92;47.6077593285452;9.41141392033249;9414;84;-33;-30;FMBroadcast;OmniLOG30800;9500000.24538109;13000.2473176505;129.321246807147;112.210970977885;38;-5;-31;Vom Ödipuskomplex maßlos gequält, übt Wilfried zyklisches Jodeln.Vom Ödipuskomplex maßlos gequält, übt Wilfried zyklisches Jodeln.
d96bda1d-7754-474c-b598-0cba128c1543;140;Automatic;93.010752688172;RFDevice #93RFDevice #93;47.6289147031919;9.41196432745743;202;-45;15;8;Unknown;HyperLOG60200;10300000.9723178;19000.8150075301;63.2776811184723;29.621892186637;-39;-38;11;The quick brown fox jumps over a lazy dog.The quick brown fox jumps over a lazy dog.
d596aa81-870a-48c8-a936-bb209876cd27;312;Automatic;94.0106382978723;RFDevice #94RFDevice #94;47.6345407561851;9.37994352748717;1268;-40;-7;41;TwinRx;Unknown;9300000.86236159;16000.3233347606;87.0014693392448;87.1006843410901;-9;-34;-73;Vom Ödipuskomplex maßlos gequält, übt Wilfried zyklisches Jodeln.Vom Ödipuskomplex maßlos gequält, übt Wilfried zyklisches Jodeln.
3af2b843-44df-4e47-aa67-6f8ac0940464;-296;Automatic;95.0105263157895;RFDevice #95RFDevice #95;47.6903336454429;9.39194679465337;2115;-16;6;-75;AIS;OmniDirectional;9100000.99446522;10000.8140391884;132.124998541607;38.8939913049778;-3;66;49;Falsches Üben von Xylophonmusik quält jeden größeren Zwerg.Falsches Üben von Xylophonmusik quält jeden größeren Zwerg.
bedc967c-71b7-44ef-b83d-bf58fd7758c2;170;Automatic;96.0104166666667;RFDevice #96RFDevice #96;47.6836599464511;9.40108928701993;9568;38;1;55;SIN;OmniDirectional;8800000.64784383;16000.0055021206;113.399559672642;56.3235865017975;-28;-26;15;Franz jagt im komplett verwahrlosten Taxi quer durch Bayern.Franz jagt im komplett verwahrlosten Taxi quer durch Bayern.
c54d8a09-ec26-4e9d-a38c-7de95655415d;368;Automatic;97.0103092783505;RFDevice #97RFDevice #97;47.6527261999274;9.40375511903127;11167;-40;51;64;Reserved;HyperLOG60200;9600000.51588534;19000.1727726158;10.4581447827901;95.6594442080983;49;-50;-36;Franz jagt im komplett verwahrlosten Taxi quer durch Bayern.Franz jagt im komplett verwahrlosten Taxi quer durch Bayern.
a2defe9b-d34c-4042-8c0a-be9f7755bc51;-70;Automatic;98.0102040816327;RFDevice #98RFDevice #98;47.6527437709576;9.3694328254236;12097;-49;-90;-68;Reserved;HyperLOG60200;9700000.98295206;14000.940107672;71.2596695605943;28.2001461555251;-55;-2;48;Franz jagt im komplett verwahrlosten Taxi quer durch Bayern.Franz jagt im komplett verwahrlosten Taxi quer durch Bayern.
4a3ecc5d-5688-4811-acee-029b1b3ab7f1;-342;Automatic;99.010101010101;RFDevice #99RFDevice #99;47.6540211537697;9.3614390299067;6515;7;-17;88;QPSK;SimradArgusRadar;8500000.42528434;18000.5404010595;10.3126347802173;97.8229927568804;-22;-46;21;Vom Ödipuskomplex maßlos gequält, übt Wilfried zyklisches Jodeln.Vom Ödipuskomplex maßlos gequält, übt Wilfried zyklisches Jodeln.
01dc61f9-e9ac-4c70-8f54-171d8dad761b;-652;Automatic;100.01;RFDevice #100RFDevice #100;47.6487669223507;9.35644906043011;10243;89;-63;-52;Unknown;OmniDirectional;9700000.63541797;12000.6767751852;48.3360235473775;18.6176659775049;-14;2;22;Vom Ödipuskomplex maßlos gequält, übt Wilfried zyklisches Jodeln.Vom Ödipuskomplex maßlos gequält, übt Wilfried zyklisches Jodeln.
6440c469-b940-48d9-8d31-4cb995e0a053;-736;Automatic;101.009900990099;RFDevice #101RFDevice #101;47.6793541834885;9.35864625432101;8921;79;86;-37;QPSK;HyperLOG60200;8500000.68585512;13000.8574443287;62.4541500301352;132.842896294241;-41;59;45;Vom Ödipuskomplex maßlos gequält, übt Wilfried zyklisches Jodeln.Vom Ödipuskomplex maßlos gequält, übt Wilfried zyklisches Jodeln.
ce3ca5ee-3a01-4c28-84d0-7be3d2d82888;-307;Automatic;102.009803921569;RFDevice #102RFDevice #102;47.6319786261509;9.33815159779058;2447;-18;-67;-62;NFMRadio;OmniLOG30800;8500000.5196787;16000.9412305974;97.089038252872;90.4571314581936;-40;72;73;The quick brown fox jumps over a lazy dog.The quick brown fox jumps over a lazy dog.
5e5af732-abe2-44a0-a345-2e7aac8394f2;371;Automatic;103.009708737864;RFDevice #103RFDevice #103;47.6550878472708;9.40150351406247;5321;-40;-80;-9;HackRF;HyperLOG60200;10100000.3255886;12000.1916802415;97.1742396178535;130.505601440792;-24;-25;39;Vom Ödipuskomplex maßlos gequält, übt Wilfried zyklisches Jodeln.Vom Ödipuskomplex maßlos gequält, übt Wilfried zyklisches Jodeln.
17070eab-3a32-4271-8fb0-1d32341a8cab;-504;Automatic;104.009615384615;RFDevice #104RFDevice #104;47.6379405406073;9.43241658103401;1177;54;51;-74;Iridium;HyperLOG60200;9700000.34778836;10000.7233204342;87.9403142300156;124.702636479262;54;17;-9;Falsches Üben von Xylophonmusik quält jeden größeren Zwerg.Falsches Üben von Xylophonmusik quält jeden größeren Zwerg.
6c168414-2f34-4f56-8f7a-96fba4394c61;913;Automatic;105.009523809524;RFDevice #105RFDevice #105;47.6761029512801;9.34378213498553;2099;-31;-78;44;SIN;SimradArgusRadar;8700000.91919537;16000.8045269096;78.9837779621518;127.325552207569;15;50;27;The quick brown fox jumps over a lazy dog.The quick brown fox jumps over a lazy dog.
6edc2674-1f28-4040-b9ea-3933d5f288f4;-391;Automatic;106.009433962264;RFDevice #106RFDevice #106;47.6720525428115;9.35514394401914;6894;-17;-71;34;HackRF;Unknown;10200000.8042184;18000.3331389042;33.4186804138211;65.8653429708748;54;45;70;Franz jagt im komplett verwahrlosten Taxi quer durch Bayern.Franz jagt im komplett verwahrlosten Taxi quer durch Bayern.
f8ed7576-3724-4482-b131-55219df2d008;-346;Automatic;107.009345794393;RFDevice #107RFDevice #107;47.6077814350465;9.34988956917639;9851;-73;71;-87;AIS;Unknown;8600000.27220734;18000.1684822781;8.48840957530235;113.883327913416;37;-74;29;Vom Ödipuskomplex maßlos gequält, übt Wilfried zyklisches Jodeln.Vom Ödipuskomplex maßlos gequält, übt Wilfried zyklisches Jodeln.
fe2a41e1-d38b-476f-b5bc-704ce81bff90;333;Automatic;108.009259259259;RFDevice #108RFDevice #108;47.6955828439715;9.37062639169526;6154;-72;-85;84;Reserved;Unknown;9700000.32823941;14000.0648202994;89.7603420018034;13.4877654944955;44;-65;-14;The quick brown fox jumps over a lazy dog.The quick brown fox jumps over a lazy dog.
86d49897-99e4-4a61-892c-4c6691ca7ba7;-181;Automatic;109.009174311927;RFDevice #109RFDevice #109;47.6821252385595;9.35796917926993;12012;-29;72;-9;Iridium;OmniLOG30800;8700000.62551537;10000.226256413;77.8956548682859;83.5221532762619;-47;50;19;The quick brown fox jumps over a lazy dog.The quick brown fox jumps over a lazy dog.
4a69a6a1-ec07-400a-8c2e-c0dda584b025;-655;Automatic;110.009090909091;RFDevice #110RFDevice #110;47.602549389035;9.34200309259081;8913;61;65;-72;Unknown;Unknown;9600000.25818555;16000.4529890634;115.750070526148;38.5538082102099;-31;-9;10;Vom Ödipuskomplex maßlos gequält, übt Wilfried zyklisches Jodeln.Vom Ödipuskomplex maßlos gequält, übt Wilfried zyklisches Jodeln.
adf7b861-6d3d-4ee9-9bb9-816f1e83e735;90;Automatic;111.009009009009;RFDevice #111RFDevice #111;47.6778064951256;9.41920238751051;11114;0;-72;40;FMBroadcast;OmniLOG30800;9300000.77933839;19000.4207619337;14.599196376558;79.8690902892822;-4;69;58;The quick brown fox jumps over a lazy dog.The quick brown fox jumps over a lazy dog.
94bc7bd0-1604-4feb-8b3d-23a00a33f100;538;Automatic;112.008928571429;RFDevice #112RFDevice #112;47.6491767752272;9.35725498770803;3996;89;87;-84;Iridium;OmniLOG30800;10400000.6020944;15000.4526334607;114.408911376916;29.4059338292135;-38;25;55;The quick brown fox jumps over a lazy dog.The quick brown fox jumps over a lazy dog.
ca48f67f-6b01-4f68-9cfe-0952d2f3b26b;-657;Automatic;113.008849557522;RFDevice #113RFDevice #113;47.6385588150942;9.41800380862792;2372;71;31;-11;GPSJammer;OmniDirectional;9600000.64855429;11000.7382468128;103.56248012351;77.9944983269062;69;47;1;Franz jagt im komplett verwahrlosten Taxi quer durch Bayern.Franz jagt im komplett verwahrlosten Taxi quer durch Bayern.
aae22c78-f59b-4760-afa2-66f9e421c0e7;503;Automatic;114.008771929825;RFDevice #114RFDevice #114;47.6668569970547;9.42421757273208;6105;-65;-42;1;NFMRadio;SimradArgusRadar;10000000.8965106;14000.8932944927;55.3336687289801;46.1315377406457;-71;45;24;Vom Ödipuskomplex maßlos gequält, übt Wilfried zyklisches Jodeln.Vom Ödipuskomplex maßlos gequält, übt Wilfried zyklisches Jodeln.
60074610-08ea-41be-8744-8fbb78765489;-49;Automatic;115.008695652174;RFDevice #115RFDevice #115;47.6300812063239;9.38107070806122;7061;17;23;89;HackRF;Unknown;9500000.65899679;18000.5258366165;74.3153440502078;69.9847115715894;-18;50;-31;Vom Ödipuskomplex maßlos gequält, übt Wilfried zyklisches Jodeln.Vom Ödipuskomplex maßlos gequält, übt Wilfried zyklisches Jodeln.
dd570148-0873-46c3-9204-1da7507f25b0;-686;Automatic;116.008620689655;RFDevice #116RFDevice #116;47.6808534245674;9.37289694775132;8610;-76;6;88;B200mini;HyperLOG60200;9100000.08657168;17000.8125891666;119.280872449875;70.7984580960118;63;-40;12;Falsches Üben von Xylophonmusik quält jeden größeren Zwerg.Falsches Üben von Xylophonmusik quält jeden größeren Zwerg.
d3b5780e-59cc-4053-909a-0837dea3f47b;598;Automatic;117.008547008547;RFDevice #117RFDevice #117;47.6848433606547;9.43341154071763;4817;-53;-54;-60;LTE;OmniLOG30800;10100000.1815011;11000.2899507416;46.5666204786704;4.93245649753719;-6;-9;35;Vom Ödipuskomplex maßlos gequält, übt Wilfried zyklisches Jodeln.Vom Ödipuskomplex maßlos gequält, übt Wilfried zyklisches Jodeln.
7406cd23-78f0-4808-bbcb-b07158ba956d;287;Automatic;118.008474576271;RFDevice #118RFDevice #118;47.6478006470997;9.34177435480708;10397;-73;6;54;LTE;OmniLOG30800;9300000.57095572;18000.769029085;101.650296963123;57.3970709105009;68;19;26;Falsches Üben von Xylophonmusik quält jeden größeren Zwerg.Falsches Üben von Xylophonmusik quält jeden größeren Zwerg.
6e310791-3864-40a2-894f-98045c629932;-648;Automatic;119.008403361345;RFDevice #119RFDevice #119;47.6499900703144;9.34847303489719;9017;-11;86;57;Unknown;OmniDirectional;9200000.05664945;13000.0043040826;81.8191406251021;77.8845258745758;35;32;-4;Falsches Üben von Xylophonmusik quält jeden größeren Zwerg.Falsches Üben von Xylophonmusik quält jeden größeren Zwerg.
e4b9c9bd-b01c-41bd-acf8-d60649f9efd0;-397;Automatic;120.008333333333;RFDevice #120RFDevice #120;47.6126661217423;9.38435872965331;11461;23;-24;-9;FMBroadcast;SimradArgusRadar;10200000.9656183;17000.9162881244;84.8719064914025;33.0618958501433;-3;31;-13;Vom Ödipuskomplex maßlos gequält, übt Wilfried zyklisches Jodeln.Vom Ödipuskomplex maßlos gequält, übt Wilfried zyklisches Jodeln.
fcd88c9e-21a3-4854-a630-78602d60c115;655;Automatic;121.00826446281;RFDevice #121RFDevice #121;47.6796219341653;9.40578583656716;12103;-56;41;-41;LTE;Unknown;9000000.70081855;14000.7470335419;45.9914539181588;129.996170947326;-9;-69;54;Falsches Üben von Xylophonmusik quält jeden größeren Zwerg.Falsches Üben von Xylophonmusik quält jeden größeren Zwerg.
76d25f7e-477f-42eb-9c34-62414ec00b60;907;Automatic;122.008196721311;RFDevice #122RFDevice #122;47.6627315279447;9.3784361324695;4565;54;-80;-86;HackRF;Unknown;8600000.88840175;16000.9678179333;31.5254898548711;38.2780653695939;-9;-43;-50;Franz jagt im komplett verwahrlosten Taxi quer durch Bayern.Franz jagt im komplett verwahrlosten Taxi quer durch Bayern.
ce3c00ea-9e81-4775-a4b6-9056d3d23d04;826;Automatic;123.008130081301;RFDevice #123RFDevice #123;47.6877320269822;9.4007225904441;9299;12;-90;37;QPSK;Unknown;9700000.95751424;16000.5899132069;89.1534939911931;8.62412299570819;-23;53;27;Franz jagt im komplett verwahrlosten Taxi quer durch Bayern.Franz jagt im komplett verwahrlosten Taxi quer durch Bayern.
3a79fa9e-38de-42e4-9d2d-e746fca11713;398;Automatic;124.008064516129;RFDevice #124RFDevice #124;47.6982525450461;9.36416773902082;4713;-48;26;74;Unknown;HyperLOG60200;9800000.7856888;18000.2928226456;118.481739942209;139.010594864381;-70;-73;7;Falsches Üben von Xylophonmusik quält jeden größeren Zwerg.Falsches Üben von Xylophonmusik quält jeden größeren Zwerg.
666f0e37-a9f6-4ba0-ba11-fcba9a9fa744;271;Automatic;125.008;RFDevice #125RFDevice #125;47.6154669057243;9.36492556982073;5404;16;17;5;SIN;Unknown;9000000.2256852;10000.006740917;126.341808726705;42.9647858068183;72;45;37;Falsches Üben von Xylophonmusik quält jeden größeren Zwerg.Falsches Üben von Xylophonmusik quält jeden größeren Zwerg.
c4d5c4f1-99d3-4655-a3ca-7f3e6fbc641a;-572;Automatic;126.007936507937;RFDevice #126RFDevice #126;47.6810632567823;9.36423213082664;8661;88;-58;83;NFMRadio;SimradArgusRadar;8500000.14753612;15000.2803510522;45.733575515325;132.554040290208;17;-65;44;The quick brown fox jumps over a lazy dog.The quick brown fox jumps over a lazy dog.
bb4cb1d2-370f-45f4-9c66-0f5fc857d312;-813;Automatic;127.007874015748;RFDevice #127RFDevice #127;47.605553886652;9.40415544510648;5350;-69;-32;12;QPSK;HyperLOG60200;8700000.88373875;12000.5250344214;41.8853265991832;62.0341515299092;-70;53;-20;Franz jagt im komplett verwahrlosten Taxi quer durch Bayern.Franz jagt im komplett verwahrlosten Taxi quer durch Bayern.
081b3b6e-69b1-4479-81ae-7adb72e34cfa;943;Automatic;128.0078125;RFDevice #128RFDevice #128;47.6202459525237;9.41467023323144;9952;-50;5;15;LTE;OmniDirectional;10000000.4133811;16000.4787382705;45.5340272977641;2.61521560215168;-15;-16;-65;Franz jagt im komplett verwahrlosten Taxi quer durch Bayern.Franz jagt im komplett verwahrlosten Taxi quer durch Bayern.
274f94e9-f362-41f9-b471-1106cebf75ce;305;Automatic;129.007751937984;RFDevice #129RFDevice #129;47.6251269321366;9.34535754665618;3669;46;-38;45;QPSK;SimradArgusRadar;9700000.72618396;16000.9659435008;63.6829248213595;54.94484259465;-5;-58;18;The quick brown fox jumps over a lazy dog.The quick brown fox jumps over a lazy dog.
56cc3385-4129-4e08-920d-47759311b317;-758;Automatic;130.007692307692;RFDevice #130RFDevice #130;47.6475132122916;9.40492231506719;6197;60;-38;26;HackRF;Unknown;9800000.90713829;10000.9911919483;52.9908401761161;92.9883856107427;-67;37;32;Vom Ödipuskomplex maßlos gequält, übt Wilfried zyklisches Jodeln.Vom Ödipuskomplex maßlos gequält, übt Wilfried zyklisches Jodeln.
ed486311-96a8-4450-8f2b-1cdc3c650b1a;135;Automatic;131.007633587786;RFDevice #131RFDevice #131;47.6107857634422;9.4291112962604;1357;-43;-29;47;GPSJammer;HyperLOG60200;8600000.02661571;12000.4249332465;90.7507054939637;82.1578613422615;65;-66;-11;Vom Ödipuskomplex maßlos gequält, übt Wilfried zyklisches Jodeln.Vom Ödipuskomplex maßlos gequält, übt Wilfried zyklisches Jodeln.
129e94c9-b26a-404b-a2a7-75f3996031d1;-962;Automatic;132.007575757576;RFDevice #132RFDevice #132;47.657385323788;9.34183843168617;2182;63;-87;-34;QPSK;HyperLOG60200;9800000.40476538;19000.5309740903;108.509058438944;128.449703589291;63;68;-58;Vom Ödipuskomplex maßlos gequält, übt Wilfried zyklisches Jodeln.Vom Ödipuskomplex maßlos gequält, übt Wilfried zyklisches Jodeln.
6df7ef7b-eacb-494f-8c44-f59a85e3019c;-977;Automatic;133.007518796992;RFDevice #133RFDevice #133;47.6401744169196;9.36879909563855;8781;-15;23;-9;NFMRadio;SimradArgusRadar;9500000.13874936;12000.8136782077;88.7269272681917;112.723994866351;15;-72;31;Franz jagt im komplett verwahrlosten Taxi quer durch Bayern.Franz jagt im komplett verwahrlosten Taxi quer durch Bayern.
7d0cb640-9c6f-43d0-b63d-3720399551fd;622;Automatic;134.007462686567;RFDevice #134RFDevice #134;47.6699395894224;9.34239259348464;11372;65;29;23;Iridium;HyperLOG60200;9900000.90881075;13000.0874079233;9.67431188592422;5.08543462775901;-12;-16;5;Vom Ödipuskomplex maßlos gequält, übt Wilfried zyklisches Jodeln.Vom Ödipuskomplex maßlos gequält, übt Wilfried zyklisches Jodeln.
dce0f5a9-f354-4880-b5f4-37b92ae2879f;-435;Automatic;135.007407407407;RFDevice #135RFDevice #135;47.6499750261486;9.34304383783845;3637;63;47;24;SIN;HyperLOG60200;9500000.29633292;10000.433832817;68.0303294300243;114.081709796601;1;59;-38;Vom Ödipuskomplex maßlos gequält, übt Wilfried zyklisches Jodeln.Vom Ödipuskomplex maßlos gequält, übt Wilfried zyklisches Jodeln.
02bd69f1-e384-4a81-870c-2c3e929999fb;473;Automatic;136.007352941176;RFDevice #136RFDevice #136;47.6336198778107;9.35836162160642;11656;-53;-52;-17;TwinRx;OmniLOG30800;10100000.2752343;19000.0671731024;23.8592408345357;87.8504258272473;50;43;-67;Franz jagt im komplett verwahrlosten Taxi quer durch Bayern.Franz jagt im komplett verwahrlosten Taxi quer durch Bayern.
fe5fef98-fb4a-4db0-9cc8-5309265ebb6e;108;Automatic;137.007299270073;RFDevice #137RFDevice #137;47.654547416939;9.42671271999781;8140;10;-62;-90;Iridium;OmniDirectional;10000000.038371;10000.3123611455;34.5191129807006;104.923284265177;-46;-51;4;Falsches Üben von Xylophonmusik quält jeden größeren Zwerg.Falsches Üben von Xylophonmusik quält jeden größeren Zwerg.
d5bd155b-451f-466b-bd83-0b12cdb624ed;306;Automatic;138.007246376812;RFDevice #138RFDevice #138;47.6409933465549;9.40919091425434;3686;23;-78;-45;QPSK;HyperLOG60200;10100000.6871383;18000.8221879182;68.5469223603359;50.6115308574455;-50;-70;-62;Vom Ödipuskomplex maßlos gequält, übt Wilfried zyklisches Jodeln.Vom Ödipuskomplex maßlos gequält, übt Wilfried zyklisches Jodeln.
c11c8620-81a3-44db-ae96-63e199e5f3d2;-248;Automatic;139.007194244604;RFDevice #139RFDevice #139;47.6294752165871;9.43022507514917;8469;40;-38;24;LTE;Unknown;8600000.02068301;10000.389056659;50.5490181998112;104.328991111987;-40;18;-10;Vom Ödipuskomplex maßlos gequält, übt Wilfried zyklisches Jodeln.Vom Ödipuskomplex maßlos gequält, übt Wilfried zyklisches Jodeln.
01d85a82-4022-4b7d-b9d2-ce4c2bdf9d91;-484;Automatic;140.007142857143;RFDevice #140RFDevice #140;47.6426351376368;9.36927656907656;1473;38;-79;59;AIS;OmniLOG30800;10300000.5686607;16000.8525472092;81.9682194855848;1.65036277130729;33;44;-16;Franz jagt im komplett verwahrlosten Taxi quer durch Bayern.Franz jagt im komplett verwahrlosten Taxi quer durch Bayern.
e599ed29-a182-4e90-8a44-295cc9684d2e;-996;Automatic;141.007092198582;RFDevice #141RFDevice #141;47.6081055547905;9.3614033365732;10751;43;-59;27;TwinRx;Unknown;10300000.9379516;16000.2007575097;128.652101124475;19.4163741275744;-51;47;27;Vom Ödipuskomplex maßlos gequält, übt Wilfried zyklisches Jodeln.Vom Ödipuskomplex maßlos gequält, übt Wilfried zyklisches Jodeln.
dd9d9d39-5183-474a-b622-78e889ca8dbd;-671;Automatic;142.007042253521;RFDevice #142RFDevice #142;47.6165886048829;9.43382510635816;2142;-1;7;39;LTE;SimradArgusRadar;10200000.8598949;12000.1935581249;67.4841718955357;52.377882046801;37;61;66;Falsches Üben von Xylophonmusik quält jeden größeren Zwerg.Falsches Üben von Xylophonmusik quält jeden größeren Zwerg.
a3f422b1-1a93-4e50-9717-23c3e55eccab;-816;Automatic;143.006993006993;RFDevice #143RFDevice #143;47.6236979515693;9.38342195318342;6809;31;-68;-50;Reserved;OmniLOG30800;9100000.3184342;13000.7218636175;53.81129754745;32.4724123345094;35;-24;29;The quick brown fox jumps over a lazy dog.The quick brown fox jumps over a lazy dog.
659ffe81-bbff-44eb-839a-7d98ff1af7b3;318;Automatic;144.006944444444;RFDevice #144RFDevice #144;47.6705664248826;9.38029525389079;7602;-62;43;21;IdealSDR;Unknown;10000000.2175254;15000.6249231075;90.3453580273061;74.7094893076967;56;55;-57;Falsches Üben von Xylophonmusik quält jeden größeren Zwerg.Falsches Üben von Xylophonmusik quält jeden größeren Zwerg.
1716ed14-be08-4ebf-83de-7621f280eb17;992;Automatic;145.006896551724;RFDevice #145RFDevice #145;47.665956922564;9.38996206990077;7773;22;-48;-21;GPSJammer;OmniLOG30800;9300000.3954455;15000.9157700375;99.7253355699244;105.000956409146;12;0;42;Franz jagt im komplett verwahrlosten Taxi quer durch Bayern.Franz jagt im komplett verwahrlosten Taxi quer durch Bayern.
455cd19b-1257-427a-9cea-59296638eea5;171;Automatic;146.006849315069;RFDevice #146RFDevice #146;47.6598090362141;9.38444615015603;12282;-36;-74;-89;Iridium;Unknown;9600000.54281013;11000.3665119211;32.8800596021489;76.0585043090668;-50;-41;-59;The quick brown fox jumps over a lazy dog.The quick brown fox jumps over a lazy dog.
0a384c8f-c7b8-4a11-ace3-5a58452dea92;632;Automatic;147.006802721088;RFDevice #147RFDevice #147;47.6321532572129;9.33813268833343;7961;-52;36;14;QPSK;HyperLOG60200;9000000.20808856;13000.6844743456;131.895468492478;30.620285714334;67;-19;6;The quick brown fox jumps over a lazy dog.The quick brown fox jumps over a lazy dog.
cdf19d71-c3e6-47be-b498-5f9e8d18a7d3;45;Automatic;148.006756756757;RFDevice #148RFDevice #148;47.6484995300933;9.38342480335646;6049;-60;-73;-89;QPSK;SimradArgusRadar;10400000.4822555;16000.3314239342;60.6617343223941;35.7282778833659;60;-51;51;Franz jagt im komplett verwahrlosten Taxi quer durch Bayern.Franz jagt im komplett verwahrlosten Taxi quer durch Bayern.
63336746-e45e-46cb-90e3-0d1418a2cb16;208;Automatic;149.006711409396;RFDevice #149RFDevice #149;47.648160231002;9.42761219634665;5704;-83;47;15;GPSJammer;OmniDirectional;8600000.27321769;16000.8831711094;87.9149290164536;65.3989661556664;-12;-45;-38;Vom Ödipuskomplex maßlos gequält, übt Wilfried zyklisches Jodeln.Vom Ödipuskomplex maßlos gequält, übt Wilfried zyklisches Jodeln.
679addfa-bdf7-49fb-9866-87c797ad866f;568;Automatic;150.006666666667;RFDevice #150RFDevice #150;47.7005107541164;9.36735620560569;10612;-62;-35;-30;TwinRx;SimradArgusRadar;8900000.67147825;19000.4746536228;2.00230073416713;2.69920440656096;20;-66;45;Falsches Üben von Xylophonmusik quält jeden größeren Zwerg.Falsches Üben von Xylophonmusik quält jeden größeren Zwerg.
1c87695c-add7-487b-902b-e9befd303ecc;259;Automatic;151.006622516556;RFDevice #151RFDevice #151;47.6876000890043;9.43625295206366;1840;-39;34;25;FMBroadcast;HyperLOG60200;10400000.3592568;15000.301263048;72.8344366633494;68.240396904871;-12;-43;29;The quick brown fox jumps over a lazy dog.The quick brown fox jumps over a lazy dog.
e5e92d9e-27e4-49e5-9e31-3e2d37a9769b;-95;Automatic;152.006578947368;RFDevice #152RFDevice #152;47.6511414346815;9.40919971609087;1432;-4;23;-47;AIS;SimradArgusRadar;9500000.97900196;11000.3317458533;22.7059772390434;22.3934884040586;63;-57;-13;Vom Ödipuskomplex maßlos gequält, übt Wilfried zyklisches Jodeln.Vom Ödipuskomplex maßlos gequält, übt Wilfried zyklisches Jodeln.
d5ea01fb-1aa5-4231-9079-755acb94816a;1;Automatic;153.006535947712;RFDevice #153RFDevice #153;47.6861101083451;9.39017972161638;11683;-34;-68;45;TwinRx;OmniLOG30800;9600000.93285735;13000.2503905842;42.9427846036585;11.1439504102543;-61;-27;-25;Vom Ödipuskomplex maßlos gequält, übt Wilfried zyklisches Jodeln.Vom Ödipuskomplex maßlos gequält, übt Wilfried zyklisches Jodeln.
38352031-2b2b-49e0-917e-039281db7d01;-355;Automatic;154.006493506494;RFDevice #154RFDevice #154;47.6587173823832;9.39584502850567;9828;28;-74;17;NFMRadio;SimradArgusRadar;9100000.03731539;16000.5251327364;27.7541999736588;6.82006999376233;16;-15;42;The quick brown fox jumps over a lazy dog.The quick brown fox jumps over a lazy dog.
b70f230f-5437-49fd-a26d-8acf3afe861f;722;Automatic;155.006451612903;RFDevice #155RFDevice #155;47.672258545265;9.43442036341718;9948;15;17;-60;TwinRx;OmniLOG30800;9200000.16545431;13000.350714625;74.9216546034076;90.2552953228612;-67;-43;15;The quick brown fox jumps over a lazy dog.The quick brown fox jumps over a lazy dog.
878a64f9-4124-4797-b714-9f327ec0f825;772;Automatic;156.00641025641;RFDevice #156RFDevice #156;47.6655644498198;9.39269909374643;39;82;83;38;Iridium;SimradArgusRadar;8700000.53280468;10000.264498836;119.764137483558;43.0358827421609;-28;-21;49;The quick brown fox jumps over a lazy dog.The quick brown fox jumps over a lazy dog.
fef426cc-d084-403f-b03a-14eebecd82b9;33;Automatic;157.006369426752;RFDevice #157RFDevice #157;47.6530445850527;9.38709655969836;175;-33;27;-11;HackRF;SimradArgusRadar;8900000.25575132;10000.5099229601;13.6695260906916;69.2625221285329;-36;47;-7;Vom Ödipuskomplex maßlos gequält, übt Wilfried zyklisches Jodeln.Vom Ödipuskomplex maßlos gequält, übt Wilfried zyklisches Jodeln.
ce0520e0-4557-41b3-9fbd-e93a99554f25;590;Automatic;158.006329113924;RFDevice #158RFDevice #158;47.6387899903587;9.37737087485825;1030;37;67;52;QPSK;OmniLOG30800;8600000.04967221;19000.7458359589;57.0854979926187;23.7091987066479;49;-73;46;The quick brown fox jumps over a lazy dog.The quick brown fox jumps over a lazy dog.
3eec665a-916b-43a3-8db7-40d7eb777ff9;-568;Automatic;159.006289308176;RFDevice #159RFDevice #159;47.6294827653291;9.40760255631515;8168;28;43;84;AIS;HyperLOG60200;9600000.06307076;12000.2169022403;48.7414607944626;63.0220122905551;70;-6;-58;Falsches Üben von Xylophonmusik quält jeden größeren Zwerg.Falsches Üben von Xylophonmusik quält jeden größeren Zwerg.
7c63430b-7997-4300-8d7a-969a6fce3278;-816;Automatic;160.00625;RFDevice #160RFDevice #160;47.6599755948281;9.42457739908097;4757;22;-65;-6;Unknown;SimradArgusRadar;9700000.97804984;12000.0567842457;27.7498299906728;53.102443728178;-15;27;-50;Falsches Üben von Xylophonmusik quält jeden größeren Zwerg.Falsches Üben von Xylophonmusik quält jeden größeren Zwerg.
b11bfb94-d81f-4407-903f-88cc2329a702;649;Automatic;161.006211180124;RFDevice #161RFDevice #161;47.6652821490904;9.3944580098645;1135;-56;10;-10;Unknown;Unknown;10000000.1073341;14000.3667487457;73.2449470484839;100.181245695418;13;-39;-59;Vom Ödipuskomplex maßlos gequält, übt Wilfried zyklisches Jodeln.Vom Ödipuskomplex maßlos gequält, übt Wilfried zyklisches Jodeln.
f372d86c-3e77-4720-91ac-f9748422d60b;-492;Automatic;162.006172839506;RFDevice #162RFDevice #162;47.6385884240973;9.37079441902832;10290;4;19;-66;NFMRadio;SimradArgusRadar;8900000.92604675;13000.3258252327;136.478312818556;74.8940251720576;-9;66;37;The quick brown fox jumps over a lazy dog.The quick brown fox jumps over a lazy dog.
9d95737d-97f6-43e1-b463-f02dd2c61ec5;712;Automatic;163.006134969325;RFDevice #163RFDevice #163;47.6979914833375;9.40171716805263;10393;-89;54;-19;HackRF;HyperLOG60200;9700000.71833759;12000.0024315394;81.8558255479931;63.7010277880826;-45;-9;-42;Falsches Üben von Xylophonmusik quält jeden größeren Zwerg.Falsches Üben von Xylophonmusik quält jeden größeren Zwerg.
5d507f83-2c98-4f64-9539-5031cde55612;475;Automatic;164.006097560976;RFDevice #164RFDevice #164;47.6195095897103;9.34179650475456;12171;65;-90;-27;IdealSDR;SimradArgusRadar;9900000.50043388;18000.4208902155;109.429385083927;122.711128465231;26;15;28;The quick brown fox jumps over a lazy dog.The quick brown fox jumps over a lazy dog.
1ede9a32-6490-468a-827b-aa00c99040e9;911;Automatic;165.006060606061;RFDevice #165RFDevice #165;47.6486722139461;9.39418686216528;7877;15;4;-81;SIN;HyperLOG60200;10300000.6393492;19000.1735720235;36.6194320240148;24.3165821178428;7;0;28;The quick brown fox jumps over a lazy dog.The quick brown fox jumps over a lazy dog.
0299a9c0-de54-42a5-b00c-dde88c76af16;331;Automatic;166.006024096386;RFDevice #166RFDevice #166;47.6592020360389;9.36116783503599;2442;-86;-57;80;IdealSDR;HyperLOG60200;9100000.04233872;12000.7026617591;87.845106365087;11.9755186410507;66;41;51;The quick brown fox jumps over a lazy dog.The quick brown fox jumps over a lazy dog.
2d8e219d-3008-4144-a9f6-2edabb60ff3c;231;Automatic;167.005988023952;RFDevice #167RFDevice #167;47.6179899677544;9.34956386774394;1874;-27;63;-72;SIN;OmniDirectional;10400000.2663377;16000.4096982895;88.9921043412723;76.0172725925302;18;-55;-70;Falsches Üben von Xylophonmusik quält jeden größeren Zwerg.Falsches Üben von Xylophonmusik quält jeden größeren Zwerg.
04c242cd-199c-459a-a088-0c4605073fe1;101;Automatic;168.005952380952;RFDevice #168RFDevice #168;47.6778120919319;9.38635491288665;4479;-21;46;71;SIN;SimradArgusRadar;9800000.81956392;10000.5193647512;0.844034835623593;71.3230382624655;-37;-10;-71;The quick brown fox jumps over a lazy dog.The quick brown fox jumps over a lazy dog.
02c1c89f-a453-48ac-b987-1d8b24ea214a;-109;Automatic;169.005917159763;RFDevice #169RFDevice #169;47.6764900404443;9.41750184305929;1141;51;-15;4;GPSJammer;OmniLOG30800;8700000.58562324;11000.1382295364;30.2575839377277;84.5235147208551;66;13;17;The quick brown fox jumps over a lazy dog.The quick brown fox jumps over a lazy dog.
