PrimaryKey;Id;DeviceSource;StartTime;Name;Latitude;Longitude;Altitude;Roll;Pitch;Yaw;RxTxType;AntennaType;CenterFrequency_Hz;Bandwith_Hz;Gain_dB;SignalToNoiseRatio_dB;XPos;YPos;ZPos;Remark
9eeb199b-df15-47a3-9084-74448827c0f9;0;Automatic;0;RFDevice #0;47,6679306469235;9,40567016601563;3480;8;-85;-19;HackRF;Unknown;9600000;12000;125;130;62;-14;-26;Vom Ödipuskomplex maßlos gequält, übt Wilfried zyklisches Jodeln.
890e39d8-84a4-4e53-b085-cc0ca8ed7494;-198;Automatic;0;RFDevice #1;47,7058890605365;9,41948245440787;10602;81;-90;-51;B200Mini;OmniDirectional;8800000;11000;125;104;57;25;52;The quick brown fox jumps over a lazy dog.
c6001f67-1be0-439e-8b4e-b37f4724c5eb;885;Automatic;0;RFDevice #2;47,6322289826491;9,40462236634873;12085;61;20;-19;SIN;Unknown;8600000;17000;6;64;-50;50;-47;Franz jagt im komplett verwahrlosten Taxi quer durch Bayern.
437afa69-1ebf-46d4-a4f3-547f1b987bdb;796;Automatic;0;RFDevice #3;47,6195557357128;9,44660337620458;9466;40;-79;75;B200Mini;HyperLOG60200;10300000;19000;46;20;-17;-74;27;Vom Ödipuskomplex maßlos gequält, übt Wilfried zyklisches Jodeln.
f62d4f5a-0734-4b90-8c57-39353ffb43f8;476;Automatic;0;RFDevice #4;47,6645118112968;9,4393772671389;3533;-22;36;5;QPSK;SimradArgusRadar;8600000;11000;77;116;68;-42;70;The quick brown fox jumps over a lazy dog.
717b4e02-a214-4b39-aa0f-0fc1ea891a13;790;Automatic;0;RFDevice #5;47,6495098907723;9,39233586189182;12090;-20;-4;-66;B200Mini;SimradArgusRadar;9100000;13000;128;31;-8;-60;48;The quick brown fox jumps over a lazy dog.
274188da-6ee9-4246-b89f-b6f2a0f4f5d2;-414;Automatic;0;RFDevice #6;47,633122170964;9,37600948124674;4701;36;-16;35;Unknown;OmniDirectional;10300000;14000;27;14;43;15;-20;Vom Ödipuskomplex maßlos gequält, übt Wilfried zyklisches Jodeln.
aefa2a14-db1a-4a18-b8f7-81047719dfb7;603;Automatic;0;RFDevice #7;47,6211110915381;9,4456176685821;3702;-13;-67;71;SIN;Unknown;8800000;13000;34;35;26;-17;-45;Franz jagt im komplett verwahrlosten Taxi quer durch Bayern.
b5738b26-081e-4045-816d-b5ed1da5ab8e;550;Automatic;0;RFDevice #8;47,7120547025978;9,44518782118779;2495;5;-77;4;SIN;OmniLOG30800;8900000;18000;97;96;-70;-23;-22;The quick brown fox jumps over a lazy dog.
98f45e76-4cc6-423c-9aab-467c58f37b5a;794;Automatic;0;RFDevice #9;47,6452983483177;9,39463322909501;9159;-35;16;13;B200Mini;OmniDirectional;10000000;19000;113;102;14;-2;62;Franz jagt im komplett verwahrlosten Taxi quer durch Bayern.
e6227b43-e713-4beb-ad6d-e22ebdc24ff0;-708;Automatic;0;RFDevice #10;47,7013443984788;9,3593065007141;1202;8;-32;-70;Unknown;SimradArgusRadar;9900000;11000;126;14;-30;-36;-27;Vom Ödipuskomplex maßlos gequält, übt Wilfried zyklisches Jodeln.
c6428de7-a7a4-4652-9e5f-0f440e775a00;323;Automatic;0;RFDevice #11;47,6634362009641;9,42422402292423;3874;-84;-71;-43;Unknown;OmniDirectional;9200000;10000;133;67;-43;50;-41;Falsches Üben von Xylophonmusik quält jeden größeren Zwerg.
bca4fe4e-4f46-43a6-a984-69c384f4d410;50;Automatic;0;RFDevice #12;47,7055971705373;9,45488313976639;144;-34;-42;67;TwinRx;Unknown;9000000;14000;26;40;-36;65;-66;The quick brown fox jumps over a lazy dog.
78f5a18b-7868-43ad-a40a-465eaabd9b0d;-406;Automatic;0;RFDevice #13;47,6941595831152;9,40179702665011;7001;-41;-77;-1;TwinRx;SimradArgusRadar;10200000;19000;39;15;43;-39;60;Franz jagt im komplett verwahrlosten Taxi quer durch Bayern.
ee387cbd-4a48-48cb-b5c2-73130d188cfc;-789;Automatic;0;RFDevice #14;47,6938302512011;9,39881790184563;8323;-33;-63;-16;SIN;Unknown;9700000;12000;22;119;63;-65;-74;The quick brown fox jumps over a lazy dog.
01c415a2-d38f-4405-91c6-b64a36921b65;351;Automatic;0;RFDevice #15;47,6567394112959;9,35646779481359;10916;25;-28;68;HackRF;OmniLOG30800;10300000;12000;114;66;66;-12;41;The quick brown fox jumps over a lazy dog.
fc6f1f57-5fa7-4d02-be47-4eb333f999b3;-225;Automatic;0;RFDevice #16;47,624029639397;9,4116749525331;6021;-12;53;68;B200Mini;OmniDirectional;10400000;19000;120;19;-40;7;56;Vom Ödipuskomplex maßlos gequält, übt Wilfried zyklisches Jodeln.
bb5fb152-91ed-4fa5-995b-09cdca019d58;67;Automatic;0;RFDevice #17;47,6756044353936;9,41990228659205;7268;88;-63;55;TwinRx;SimradArgusRadar;9500000;15000;61;28;16;-72;44;Vom Ödipuskomplex maßlos gequält, übt Wilfried zyklisches Jodeln.
047bb385-c53b-4965-9aae-6ef7a0f3c2fd;-793;Automatic;0;RFDevice #18;47,6816828212608;9,40666767256381;4115;-32;-78;43;QPSK;OmniDirectional;9200000;16000;106;16;-38;30;-40;Falsches Üben von Xylophonmusik quält jeden größeren Zwerg.
623f6942-f540-4773-a9f6-de29a55847d8;186;Automatic;0;RFDevice #19;47,6827461261447;9,39622911095645;7867;65;-12;54;IdealSDR;SimradArgusRadar;10200000;19000;87;25;41;53;-36;Falsches Üben von Xylophonmusik quält jeden größeren Zwerg.
8547044e-7a09-4fe7-90c6-16905d79d130;-733;Automatic;0;RFDevice #20;47,6564276382815;9,38363656004796;694;-72;-22;-81;TwinRx;OmniLOG30800;8700000;11000;35;127;-44;11;45;Franz jagt im komplett verwahrlosten Taxi quer durch Bayern.
7f31ec0b-20a9-4fae-b87e-068a2d002812;-828;Automatic;0;RFDevice #21;47,6926748939515;9,39641552469262;1078;68;87;70;TwinRx;HyperLOG60200;10200000;16000;73;40;-60;61;-21;Vom Ödipuskomplex maßlos gequält, übt Wilfried zyklisches Jodeln.
4fd9691a-e56d-4d72-b017-94e7892427ce;711;Automatic;0;RFDevice #22;47,6465152817289;9,38502761180483;7645;-50;84;51;IdealSDR;OmniDirectional;9500000;18000;113;32;-49;29;20;The quick brown fox jumps over a lazy dog.
3821a64e-868c-4384-ac7f-dc62c57f78f6;-911;Automatic;0;RFDevice #23;47,7020756247921;9,44898114385703;8695;-65;61;75;IdealSDR;Unknown;9200000;19000;29;39;66;-19;23;Falsches Üben von Xylophonmusik quält jeden größeren Zwerg.
bf97a3fc-996e-4967-bb44-be8ebdaafb1d;-836;Automatic;0;RFDevice #24;47,6962762559506;9,41750934632115;8535;-56;-7;-11;QPSK;HyperLOG60200;9000000;13000;13;113;-27;-40;-49;Franz jagt im komplett verwahrlosten Taxi quer durch Bayern.
269b1c15-f967-4115-bc67-e618a26e7ece;124;Automatic;0;RFDevice #25;47,6267638706952;9,41804422897397;1981;-17;2;62;FMRadio;HyperLOG60200;9800000;13000;43;2;8;1;-4;The quick brown fox jumps over a lazy dog.
e8f6cf88-8933-4ec4-983d-022737845085;-108;Automatic;0;RFDevice #26;47,7070976719751;9,391030981315;6480;33;50;-47;FMRadio;OmniDirectional;8500000;18000;97;73;-60;-29;-36;Franz jagt im komplett verwahrlosten Taxi quer durch Bayern.
126ba989-011c-4e4e-9b5c-2a681210ded3;-362;Automatic;0;RFDevice #27;47,6216440140363;9,42631662067522;771;77;61;56;HackRF;OmniLOG30800;9800000;12000;48;126;33;-35;41;The quick brown fox jumps over a lazy dog.
66a07d63-ecdc-4e5c-b08e-0da6f909598b;61;Automatic;0;RFDevice #28;47,7165329687134;9,42032729625453;8746;6;-37;-32;HackRF;Unknown;9700000;12000;23;58;-51;10;3;Vom Ödipuskomplex maßlos gequält, übt Wilfried zyklisches Jodeln.
cb5e8b17-407f-49d4-a5dd-0d81b7acd8ac;-260;Automatic;0;RFDevice #29;47,6527329066308;9,37622845397357;9978;85;-33;-88;B200Mini;Unknown;10000000;16000;121;7;33;64;-23;Falsches Üben von Xylophonmusik quält jeden größeren Zwerg.
8ef27efe-8e61-451c-832b-5f2054a6fe7b;265;Automatic;0;RFDevice #30;47,6458442335921;9,42390217907644;756;-47;-53;11;IdealSDR;Unknown;10100000;16000;84;95;-14;-59;-41;Franz jagt im komplett verwahrlosten Taxi quer durch Bayern.
e824f02f-88a3-412f-b3e9-7e0346995d9a;-234;Automatic;0;RFDevice #31;47,63689677689;9,39543611919031;2268;-20;56;50;TwinRx;OmniDirectional;8800000;11000;73;79;57;-38;63;Falsches Üben von Xylophonmusik quält jeden größeren Zwerg.
9fafa830-1fe9-46dc-b2b2-d5f520652107;878;Automatic;0;RFDevice #32;47,6714339689909;9,36244025957155;3754;74;0;73;SIN;OmniDirectional;9700000;18000;57;127;68;6;-73;Vom Ödipuskomplex maßlos gequält, übt Wilfried zyklisches Jodeln.
e50435ca-c755-4249-af0a-6fa5a1d4b917;-526;Automatic;0;RFDevice #33;47,6983891697352;9,3893983190105;9605;-33;-4;-71;FMRadio;OmniDirectional;8900000;18000;64;44;-32;53;-28;The quick brown fox jumps over a lazy dog.
78306e70-292d-4ea7-b779-8f84c78e06e0;512;Automatic;0;RFDevice #34;47,6701714454771;9,39928259111178;4212;-48;67;15;TwinRx;OmniDirectional;9700000;10000;67;118;28;71;-26;The quick brown fox jumps over a lazy dog.
3153ddb1-3a86-40ad-8a35-8f13f6b78af6;489;Automatic;0;RFDevice #35;47,6389650180411;9,45283663121386;1609;-82;27;-49;SIN;HyperLOG60200;8600000;14000;112;29;-37;-50;-46;Falsches Üben von Xylophonmusik quält jeden größeren Zwerg.
d9a012c4-d8c3-4c46-880c-c009e468a191;-38;Automatic;0;RFDevice #36;47,6951125986145;9,43936725549106;11967;-67;82;13;B200Mini;OmniDirectional;8900000;14000;102;110;10;-50;-48;Franz jagt im komplett verwahrlosten Taxi quer durch Bayern.
aa95b221-4dd7-4012-b771-3a39989e3936;-798;Automatic;0;RFDevice #37;47,6199763082519;9,44004808735772;9431;-15;-1;-63;TwinRx;Unknown;9300000;11000;0;86;51;37;-45;Vom Ödipuskomplex maßlos gequält, übt Wilfried zyklisches Jodeln.
a2048b40-8b6e-4a1b-99c9-33c188e72ac0;810;Automatic;0;RFDevice #38;47,6575755363823;9,45289515408092;1051;-79;-76;79;FMRadio;SimradArgusRadar;9800000;12000;66;11;-61;40;3;Vom Ödipuskomplex maßlos gequält, übt Wilfried zyklisches Jodeln.
03d36df4-91e3-4907-ba07-89ce192ffd7e;712;Automatic;0;RFDevice #39;47,6247257463043;9,42080116391421;10213;57;-24;18;SIN;Unknown;9100000;12000;136;15;-34;63;58;Falsches Üben von Xylophonmusik quält jeden größeren Zwerg.
236d4a67-01e6-4d79-9e1f-217805d3e60f;-971;Automatic;0;RFDevice #40;47,6516485745087;9,41249701690712;7367;-23;-32;-84;HackRF;OmniDirectional;10300000;15000;66;57;-23;36;-68;Franz jagt im komplett verwahrlosten Taxi quer durch Bayern.
5bcb179a-a780-4dfd-8035-7c54cdac4707;808;Automatic;0;RFDevice #41;47,6316898965184;9,40333405490856;4351;-88;-55;59;B200Mini;OmniDirectional;9800000;17000;64;113;1;72;4;Vom Ödipuskomplex maßlos gequält, übt Wilfried zyklisches Jodeln.
462e1391-a42f-41d7-9c13-08c0e8bc57f1;455;Automatic;0;RFDevice #42;47,6849941682226;9,41962907058837;3475;64;-49;44;TwinRx;Unknown;9700000;17000;109;3;72;24;-32;The quick brown fox jumps over a lazy dog.
c357be98-b333-4c08-a376-71e815fc4599;-443;Automatic;0;RFDevice #43;47,689901838516;9,42104591988743;4920;-82;56;-82;Unknown;SimradArgusRadar;9400000;12000;76;114;-28;24;9;Vom Ödipuskomplex maßlos gequält, übt Wilfried zyklisches Jodeln.
f4062345-6b05-4690-b0d9-1d3eeb0039ba;-109;Automatic;0;RFDevice #44;47,6575722336331;9,41046510683596;4526;-61;-51;4;TwinRx;SimradArgusRadar;9700000;15000;37;28;-37;63;-32;Franz jagt im komplett verwahrlosten Taxi quer durch Bayern.
0092559d-3dfe-48a3-8a6c-9b72f0cb2016;-933;Automatic;0;RFDevice #45;47,6278600279597;9,42447753530871;8242;-75;-14;-73;QPSK;Unknown;9900000;12000;113;128;50;-3;-64;The quick brown fox jumps over a lazy dog.
c7382ef1-14a8-4bc8-a7c0-ec8cacf39be9;-313;Automatic;0;RFDevice #46;47,6461686017199;9,44927253613416;1922;-69;-86;16;SIN;OmniDirectional;9200000;16000;72;78;4;-37;21;The quick brown fox jumps over a lazy dog.
8a0ecf72-293b-4e3e-8be4-72d3d90d4be6;662;Automatic;0;RFDevice #47;47,6660243398577;9,39883352936858;5977;-83;-58;23;TwinRx;SimradArgusRadar;8800000;17000;9;52;65;72;14;Vom Ödipuskomplex maßlos gequält, übt Wilfried zyklisches Jodeln.
272e612b-f594-40d7-8483-c489c22cefb1;858;Automatic;0;RFDevice #48;47,6590621473302;9,43967538666167;4477;62;-55;-81;SIN;SimradArgusRadar;9800000;18000;68;125;-39;-2;-29;Vom Ödipuskomplex maßlos gequält, übt Wilfried zyklisches Jodeln.
cbb37af8-b9fb-4764-9d0b-529ecb15b901;-403;Automatic;0;RFDevice #49;47,6640712337859;9,40660739529456;2790;18;77;25;FMRadio;OmniLOG30800;9400000;13000;68;11;31;-69;22;Franz jagt im komplett verwahrlosten Taxi quer durch Bayern.
4b2afbc9-0860-43d4-9978-5f1c79803555;-284;Automatic;0;RFDevice #50;47,6218294283702;9,40054013957031;9509;-66;25;-35;B200Mini;Unknown;8900000;11000;138;131;-30;-17;52;Falsches Üben von Xylophonmusik quält jeden größeren Zwerg.
bfae489a-26f0-4f42-b497-4a3e36ccaf7d;-683;Automatic;0;RFDevice #51;47,6495120287397;9,36894410607092;3234;-88;15;-27;SIN;Unknown;10200000;19000;29;67;66;20;-19;The quick brown fox jumps over a lazy dog.
87836743-71ee-4a77-b190-9617fcab1473;949;Automatic;0;RFDevice #52;47,6844724893955;9,40092256322748;653;-45;65;-65;Unknown;HyperLOG60200;9200000;14000;40;88;-1;30;72;Falsches Üben von Xylophonmusik quält jeden größeren Zwerg.
b9cff729-cbea-40bd-a6a2-9e4ba93a0e68;-625;Automatic;0;RFDevice #53;47,7128983262746;9,36571400950665;11311;31;76;-90;QPSK;SimradArgusRadar;10400000;13000;110;96;55;-49;48;Franz jagt im komplett verwahrlosten Taxi quer durch Bayern.
a2e844b6-0741-4fda-850d-b68d8efce036;-454;Automatic;0;RFDevice #54;47,6800972048558;9,36313483827164;4544;25;82;41;IdealSDR;OmniLOG30800;10400000;16000;121;12;-47;45;-63;Falsches Üben von Xylophonmusik quält jeden größeren Zwerg.
7a09f86e-7520-4654-b232-f98a0cd3bd63;63;Automatic;0;RFDevice #55;47,6722164253101;9,37999936953389;1138;84;30;20;IdealSDR;SimradArgusRadar;9700000;17000;35;137;32;47;65;Falsches Üben von Xylophonmusik quält jeden größeren Zwerg.
09cd9a9e-be01-4248-8def-6ac529cc42ee;-903;Automatic;0;RFDevice #56;47,6780622587429;9,40847974750344;821;-55;54;-17;QPSK;OmniLOG30800;8700000;17000;131;102;-31;24;-47;Vom Ödipuskomplex maßlos gequält, übt Wilfried zyklisches Jodeln.
f6f898ac-e703-4d58-aab2-214d57bb3b7a;459;Automatic;0;RFDevice #57;47,6821588766437;9,35678094569645;7751;73;-46;-82;B200Mini;SimradArgusRadar;10200000;14000;3;33;-71;-49;-26;Falsches Üben von Xylophonmusik quält jeden größeren Zwerg.
2a8a0bac-30c7-40ef-b7dc-361328cfc05f;-941;Automatic;0;RFDevice #58;47,6477167202374;9,42679563882813;195;81;5;-72;B200Mini;Unknown;8600000;11000;78;51;-43;-70;39;Falsches Üben von Xylophonmusik quält jeden größeren Zwerg.
c1fb3a30-d98d-46c6-8f2d-3fd1fafffc50;-551;Automatic;0;RFDevice #59;47,6502578133245;9,39519148028433;10309;-48;84;57;QPSK;HyperLOG60200;8500000;14000;21;108;-51;-12;-26;Falsches Üben von Xylophonmusik quält jeden größeren Zwerg.
df812bdd-4f52-45ce-b1fa-d7f9b31eeda1;724;Automatic;0;RFDevice #60;47,6829290841619;9,43820540233633;5611;-88;-43;-55;FMRadio;OmniDirectional;8600000;17000;113;4;-59;58;26;Falsches Üben von Xylophonmusik quält jeden größeren Zwerg.
bb73e380-2401-4455-958f-107fe4c8ffdc;-611;Automatic;0;RFDevice #61;47,6526039627851;9,37327963962108;5964;32;69;-65;HackRF;HyperLOG60200;9100000;14000;18;51;59;-19;62;The quick brown fox jumps over a lazy dog.
f16ee910-66e0-46bf-9826-825363c9900b;405;Automatic;0;RFDevice #62;47,6244571113832;9,40759659996346;9624;76;-4;9;SIN;HyperLOG60200;8700000;15000;5;120;-55;58;8;Franz jagt im komplett verwahrlosten Taxi quer durch Bayern.
74a6bb3b-a970-468d-a224-9e86fb2d64f4;304;Automatic;0;RFDevice #63;47,6304210680205;9,40473746480377;8017;58;-58;17;HackRF;OmniLOG30800;8700000;11000;122;50;70;58;-26;Franz jagt im komplett verwahrlosten Taxi quer durch Bayern.
a3f12d1a-3ba9-454f-a49c-0447f47afeaa;-464;Automatic;0;RFDevice #64;47,6892206645513;9,44378510128619;11032;-47;-28;-38;FMRadio;HyperLOG60200;8900000;18000;17;106;-34;-56;66;Falsches Üben von Xylophonmusik quält jeden größeren Zwerg.
19c4df35-3f87-446f-96d5-dbf4130f23ad;701;Automatic;0;RFDevice #65;47,6725708500347;9,4008946645517;3916;28;55;32;FMRadio;OmniDirectional;8900000;16000;46;71;-32;-25;-41;Franz jagt im komplett verwahrlosten Taxi quer durch Bayern.
9e002242-0579-4a65-a8d2-51f2b24452f9;975;Automatic;0;RFDevice #66;47,6310454297249;9,36871917236738;5609;-6;-87;83;HackRF;OmniLOG30800;9700000;10000;74;126;-4;-62;-49;The quick brown fox jumps over a lazy dog.
78491c3c-7f8d-4a20-a186-94c0d59b01e7;-340;Automatic;0;RFDevice #67;47,6430638326758;9,40898425532659;10592;82;-82;86;HackRF;OmniLOG30800;9400000;19000;78;8;68;40;-58;Franz jagt im komplett verwahrlosten Taxi quer durch Bayern.
806d55c2-b740-48de-9e97-a3910ac50f42;-293;Automatic;0;RFDevice #68;47,6728005821682;9,43744715104428;1713;17;-70;-85;B200Mini;SimradArgusRadar;10200000;14000;97;46;58;-9;-2;The quick brown fox jumps over a lazy dog.
382eac84-cfe6-4664-8ffc-cf3037e473b1;342;Automatic;0;RFDevice #69;47,6248438950969;9,43213203797418;5336;-56;-25;-80;QPSK;Unknown;9600000;18000;68;7;47;-27;-40;Falsches Üben von Xylophonmusik quält jeden größeren Zwerg.
813f87e7-7463-4de6-8060-58d5cb71e41f;723;Automatic;0;RFDevice #70;47,6486818235121;9,40654638211749;11004;6;-5;-26;TwinRx;SimradArgusRadar;10400000;19000;129;21;-9;40;-2;Falsches Üben von Xylophonmusik quält jeden größeren Zwerg.
798e737f-75a6-405b-9b37-5385c943123f;136;Automatic;0;RFDevice #71;47,6964045707578;9,4004322012862;11314;36;29;30;FMRadio;HyperLOG60200;9400000;19000;75;40;19;46;-32;Franz jagt im komplett verwahrlosten Taxi quer durch Bayern.
5433e999-4d8f-4faa-80ab-77b2a573f41b;688;Automatic;0;RFDevice #72;47,6302595278381;9,4007020377298;102;-39;-31;-16;B200Mini;SimradArgusRadar;10400000;15000;116;128;24;-34;-31;The quick brown fox jumps over a lazy dog.
386f4b9f-b082-4399-bd55-bef3b5037dde;-440;Automatic;0;RFDevice #73;47,7004037029802;9,41946681861942;8033;8;-63;18;Unknown;SimradArgusRadar;8900000;14000;121;118;21;33;46;Vom Ödipuskomplex maßlos gequält, übt Wilfried zyklisches Jodeln.
7a182896-54c3-4395-92f5-80e905e313ca;-60;Automatic;0;RFDevice #74;47,645133991257;9,38501722793064;10492;-19;-30;-20;B200Mini;OmniDirectional;9000000;19000;40;139;-74;-74;-46;Vom Ödipuskomplex maßlos gequält, übt Wilfried zyklisches Jodeln.
da897858-e304-4e84-9a1c-18c8d8e3646d;-46;Automatic;0;RFDevice #75;47,6344609778527;9,38435762151083;2751;34;62;15;QPSK;SimradArgusRadar;9000000;17000;95;95;47;-39;47;Falsches Üben von Xylophonmusik quält jeden größeren Zwerg.
4cc9c536-0cd1-4ade-a0f9-177c0c28a1ce;-528;Automatic;0;RFDevice #76;47,6374865651996;9,39670144063003;8570;18;-9;89;HackRF;HyperLOG60200;9400000;15000;21;20;-25;4;44;Falsches Üben von Xylophonmusik quält jeden größeren Zwerg.
d3f9cba2-3e1d-4795-a039-a295c49f35fd;-941;Automatic;0;RFDevice #77;47,684289597316;9,42485729044731;3530;-64;-58;-82;IdealSDR;OmniLOG30800;9600000;11000;113;71;67;-58;54;Vom Ödipuskomplex maßlos gequält, übt Wilfried zyklisches Jodeln.
a804ed79-d013-403a-add0-e7a248adbfe7;-20;Automatic;0;RFDevice #78;47,6925557591444;9,43623893059817;2811;-81;-87;-15;SIN;SimradArgusRadar;8600000;12000;96;71;43;70;60;The quick brown fox jumps over a lazy dog.
791493fa-2576-43d0-96e7-81ea9882050e;-550;Automatic;0;RFDevice #79;47,6374328150115;9,42252948124281;4200;69;-6;84;B200Mini;Unknown;8500000;19000;77;69;-29;-50;5;Franz jagt im komplett verwahrlosten Taxi quer durch Bayern.
e942ff89-c619-4e54-b37f-c34a5f4c5c16;431;Automatic;0;RFDevice #80;47,6550602905235;9,38121565611826;636;-78;-82;21;HackRF;SimradArgusRadar;10000000;14000;102;54;21;-38;56;Franz jagt im komplett verwahrlosten Taxi quer durch Bayern.
07703df1-c432-41ac-9b66-8cb083c5a9c3;-690;Automatic;0;RFDevice #81;47,6205429892376;9,41162802253662;8003;-45;-44;40;IdealSDR;SimradArgusRadar;10100000;10000;12;99;-46;16;69;Vom Ödipuskomplex maßlos gequält, übt Wilfried zyklisches Jodeln.
04981308-ff80-451c-8f8b-063e2733770a;-759;Automatic;0;RFDevice #82;47,646281515688;9,36026637614919;6196;39;-13;75;FMRadio;HyperLOG60200;9400000;14000;37;115;-18;52;39;Vom Ödipuskomplex maßlos gequält, übt Wilfried zyklisches Jodeln.
c536a699-0eb3-4b6c-bd9c-901141e1e913;-724;Automatic;0;RFDevice #83;47,7161160980186;9,40081735879422;7303;-89;31;18;B200Mini;SimradArgusRadar;9400000;11000;48;119;38;56;32;Vom Ödipuskomplex maßlos gequält, übt Wilfried zyklisches Jodeln.
a10b6070-4dc6-4747-80f1-c7894d6cd9a9;-921;Automatic;0;RFDevice #84;47,6258300426296;9,40358011992551;3556;66;-14;82;IdealSDR;OmniLOG30800;9200000;12000;46;122;48;17;-51;Franz jagt im komplett verwahrlosten Taxi quer durch Bayern.
7b4992b9-15db-40e6-80d7-cfbbbea200f9;-329;Automatic;0;RFDevice #85;47,679925487809;9,44577879488473;5552;-83;28;-61;SIN;HyperLOG60200;9000000;11000;16;94;33;62;-31;Falsches Üben von Xylophonmusik quält jeden größeren Zwerg.
3dda82e7-6cc3-4d98-a0db-fc1177e537e3;843;Automatic;0;RFDevice #86;47,6957568995161;9,39053349431365;6195;86;18;60;SIN;OmniLOG30800;9400000;14000;7;118;-17;11;44;Franz jagt im komplett verwahrlosten Taxi quer durch Bayern.
cea1e0e0-3291-459d-adeb-228a6309817a;-921;Automatic;0;RFDevice #87;47,7131575771195;9,4197724893522;857;-84;5;30;SIN;SimradArgusRadar;9000000;12000;98;97;-40;-72;41;Vom Ödipuskomplex maßlos gequält, übt Wilfried zyklisches Jodeln.
ea532eb5-5d87-4516-926b-67378065cff9;874;Automatic;0;RFDevice #88;47,6348503173949;9,43869348826493;1969;16;77;73;SIN;OmniLOG30800;8700000;10000;28;38;-37;-25;-72;The quick brown fox jumps over a lazy dog.
1319d084-73ce-477d-b53d-1fc047769c35;-452;Automatic;0;RFDevice #89;47,6707765383036;9,36339782406936;473;57;19;60;TwinRx;SimradArgusRadar;8500000;13000;43;51;53;43;-19;The quick brown fox jumps over a lazy dog.
6303cc9c-aa06-48db-9e61-2554476645e1;-512;Automatic;0;RFDevice #90;47,6716216684412;9,41102352957491;6657;-31;-51;33;QPSK;Unknown;8700000;17000;17;38;0;-10;56;The quick brown fox jumps over a lazy dog.
d23e49ac-67d5-466c-b943-e7b6b359915b;632;Automatic;0;RFDevice #91;47,7122866751676;9,41538962040083;12223;-69;68;74;TwinRx;SimradArgusRadar;9200000;16000;105;9;40;43;-45;Vom Ödipuskomplex maßlos gequält, übt Wilfried zyklisches Jodeln.
1406540e-068e-4583-9633-9aafd9a9b06d;899;Automatic;0;RFDevice #92;47,7055839185854;9,37269969916298;11912;-19;86;-6;HackRF;OmniDirectional;10400000;11000;19;14;9;-35;-22;Franz jagt im komplett verwahrlosten Taxi quer durch Bayern.
ad44f08a-29cf-4032-853a-a864c7ec5c4f;758;Automatic;0;RFDevice #93;47,6820093937127;9,44122806281576;3416;70;-36;72;FMRadio;SimradArgusRadar;8500000;13000;58;62;63;69;-65;Franz jagt im komplett verwahrlosten Taxi quer durch Bayern.
ec57ec80-0e5f-45de-a7c9-9f6e27d513f0;-545;Automatic;0;RFDevice #94;47,6525938975396;9,44791174183704;6835;26;-16;32;SIN;HyperLOG60200;9200000;10000;90;44;-27;38;24;Vom Ödipuskomplex maßlos gequält, übt Wilfried zyklisches Jodeln.
7e6687d7-63bf-4c62-8290-17af4da9bc69;-917;Automatic;0;RFDevice #95;47,6529987576424;9,44959881985277;7869;-1;-1;-54;IdealSDR;SimradArgusRadar;8900000;17000;69;7;-55;22;10;Falsches Üben von Xylophonmusik quält jeden größeren Zwerg.
b18a3c89-5c9c-47d0-8ff0-97b7480b4f81;-127;Automatic;0;RFDevice #96;47,6445292507498;9,40601717978732;7639;-65;-43;-9;FMRadio;OmniDirectional;10000000;10000;29;137;-71;-39;63;Franz jagt im komplett verwahrlosten Taxi quer durch Bayern.
4e09bce0-9a87-45c1-9fa1-a5074adadeb5;-144;Automatic;0;RFDevice #97;47,6821830117286;9,45544176881657;9458;-85;44;78;TwinRx;OmniDirectional;8800000;18000;61;40;-40;-40;10;Franz jagt im komplett verwahrlosten Taxi quer durch Bayern.
9ed50129-cf37-4b51-bfc6-ac31a733b6d5;-417;Automatic;0;RFDevice #98;47,6420120331181;9,4448911921071;8346;83;-54;-9;QPSK;Unknown;9200000;17000;6;66;-53;0;-52;The quick brown fox jumps over a lazy dog.
3c8f3513-5840-4759-a0d2-6a6274152766;-55;Automatic;0;RFDevice #99;47,6755464315991;9,39524488786216;3277;-51;-10;-66;FMRadio;SimradArgusRadar;8800000;12000;28;4;20;8;60;Falsches Üben von Xylophonmusik quält jeden größeren Zwerg.
4470b68f-e734-48bf-8d40-d270b71d2153;1;Automatic;0;RFDevice #100;47,7158033705615;9,38093051485497;2984;-13;-76;54;QPSK;OmniLOG30800;9400000;10000;80;84;-60;-51;-54;Franz jagt im komplett verwahrlosten Taxi quer durch Bayern.
ec698a18-08d0-403a-8a5b-2037598d0fac;-381;Automatic;0;RFDevice #101;47,6454287888453;9,44856441814587;7163;71;-48;43;SIN;SimradArgusRadar;10100000;10000;115;78;22;-36;2;Falsches Üben von Xylophonmusik quält jeden größeren Zwerg.
47d6292e-0505-499a-b30e-7bae291e9c4e;315;Automatic;0;RFDevice #102;47,6729393425264;9,44841570492962;8076;85;-1;-1;IdealSDR;SimradArgusRadar;10000000;19000;58;48;14;-5;-67;Franz jagt im komplett verwahrlosten Taxi quer durch Bayern.
3c18fd6b-ce9e-444a-9f4f-9529a9f7073a;-801;Automatic;0;RFDevice #103;47,6511449778683;9,39144372513321;3812;7;15;-61;B200Mini;HyperLOG60200;9800000;13000;96;60;-3;31;-43;The quick brown fox jumps over a lazy dog.
a02afa7d-3ae6-4572-85d6-14a073ffc951;190;Automatic;0;RFDevice #104;47,680689022494;9,42523741436636;9981;-42;18;-87;Unknown;SimradArgusRadar;10100000;10000;55;88;-13;18;-27;Falsches Üben von Xylophonmusik quält jeden größeren Zwerg.
56d97dc3-e518-48a3-909a-b9be697e1d97;631;Automatic;0;RFDevice #105;47,6779216797446;9,4517944420437;3225;51;-20;-71;QPSK;HyperLOG60200;10200000;17000;113;2;-7;67;50;The quick brown fox jumps over a lazy dog.
36615dea-1f44-4734-9dbb-3b8c041036b3;888;Automatic;0;RFDevice #106;47,711910570115;9,44609337644206;5670;7;-62;62;FMRadio;SimradArgusRadar;9300000;18000;72;23;-16;36;-16;Franz jagt im komplett verwahrlosten Taxi quer durch Bayern.
25f50cb5-97e9-49a6-8f55-c7717af3ecbe;-335;Automatic;0;RFDevice #107;47,6835630304329;9,37934686759192;11413;-79;12;-54;QPSK;OmniDirectional;9700000;12000;22;20;-19;-47;64;Falsches Üben von Xylophonmusik quält jeden größeren Zwerg.
e400ce33-c3cc-4a7d-9044-1401b7e5cea5;-218;Automatic;0;RFDevice #108;47,6358919033009;9,37259837531807;8563;-25;-80;55;FMRadio;HyperLOG60200;9000000;18000;131;139;1;34;19;The quick brown fox jumps over a lazy dog.
c2203928-c0df-4b88-ab4c-5e130a20f13b;-294;Automatic;0;RFDevice #109;47,7066965872445;9,43920762098093;6047;28;-8;45;FMRadio;SimradArgusRadar;9400000;15000;47;109;-74;-3;28;Franz jagt im komplett verwahrlosten Taxi quer durch Bayern.
dbf17211-2550-4c49-8a5a-3bf74c191cd4;302;Automatic;0;RFDevice #110;47,6596074946727;9,36766948199924;2377;-6;44;54;B200Mini;OmniLOG30800;10000000;10000;36;8;12;-31;17;The quick brown fox jumps over a lazy dog.
5a3584c5-1941-4828-a50a-5284657a5c77;940;Automatic;0;RFDevice #111;47,647579875959;9,36037415201064;12220;-32;57;12;HackRF;OmniDirectional;9000000;15000;85;7;71;43;-47;The quick brown fox jumps over a lazy dog.
b2875a89-dbea-4341-a7a9-2fd87c4f6191;-970;Automatic;0;RFDevice #112;47,7178912397084;9,38294210234996;7387;-8;-21;-51;SIN;HyperLOG60200;10200000;10000;120;122;32;-56;-38;Vom Ödipuskomplex maßlos gequält, übt Wilfried zyklisches Jodeln.
a233e2a8-f842-4751-87ea-0455ca026d7b;-479;Automatic;0;RFDevice #113;47,6266952570877;9,42523532808738;8767;-89;-19;77;SIN;OmniDirectional;10300000;12000;125;107;14;-68;69;Falsches Üben von Xylophonmusik quält jeden größeren Zwerg.
276e77f1-6b31-4a15-8125-218cee5a348d;904;Automatic;0;RFDevice #114;47,632462200723;9,40231518240024;451;-10;42;-52;Unknown;SimradArgusRadar;8800000;16000;14;13;63;-72;-46;Franz jagt im komplett verwahrlosten Taxi quer durch Bayern.
e2e7bef2-025f-458d-a4bf-ffd8ac64828d;215;Automatic;0;RFDevice #115;47,6811642555192;9,3923780568115;3707;-58;45;-31;HackRF;OmniLOG30800;10200000;14000;74;110;-31;-49;7;Falsches Üben von Xylophonmusik quält jeden größeren Zwerg.
cd220bb3-a4cd-4084-b270-b2ac0ea42ed1;515;Automatic;0;RFDevice #116;47,6194926032647;9,40765944367833;4448;73;-17;79;TwinRx;OmniDirectional;9400000;10000;111;65;-21;-35;27;Falsches Üben von Xylophonmusik quält jeden größeren Zwerg.
2aad50cb-0b40-4edb-80b3-a6813931849c;-113;Automatic;0;RFDevice #117;47,663066654518;9,43425716908117;2274;-83;-23;-68;IdealSDR;Unknown;10300000;13000;16;62;-10;-72;20;The quick brown fox jumps over a lazy dog.
55f634ba-e60f-42e1-8bc0-5f1204c4f115;-551;Automatic;0;RFDevice #118;47,64583385186;9,43156966242283;2997;-79;18;-31;QPSK;OmniDirectional;9700000;13000;32;54;-59;36;23;The quick brown fox jumps over a lazy dog.
40ee6e69-9922-46be-9c37-94dffd8cb2b7;-206;Automatic;0;RFDevice #119;47,688977111614;9,36090875049366;9812;76;40;50;FMRadio;HyperLOG60200;10000000;10000;109;136;-6;19;-74;Falsches Üben von Xylophonmusik quält jeden größeren Zwerg.
26dae555-ceaa-41dc-8744-6f28c49c793c;158;Automatic;0;RFDevice #120;47,6937120489972;9,45552318636321;6222;-22;49;35;B200Mini;Unknown;8600000;18000;99;37;-39;17;44;Vom Ödipuskomplex maßlos gequält, übt Wilfried zyklisches Jodeln.
61fbc692-2d7f-48b5-a7d5-21500f7f37aa;93;Automatic;0;RFDevice #121;47,6587504012776;9,42083146004712;11277;35;-71;45;TwinRx;OmniLOG30800;9100000;16000;39;19;-63;43;56;Vom Ödipuskomplex maßlos gequält, übt Wilfried zyklisches Jodeln.
503add8c-fc8d-45da-8c27-e8de2f28ffe2;-153;Automatic;0;RFDevice #122;47,6780202549306;9,41975450548999;9181;-62;28;72;QPSK;Unknown;9300000;12000;31;67;-7;18;-16;Falsches Üben von Xylophonmusik quält jeden größeren Zwerg.
aee6625f-d5cb-4e37-8dcf-74db4859f479;-576;Automatic;0;RFDevice #123;47,6759779664801;9,42489914580678;3633;72;-26;78;TwinRx;SimradArgusRadar;8500000;11000;87;96;-18;37;-23;Vom Ödipuskomplex maßlos gequält, übt Wilfried zyklisches Jodeln.
ac321924-a543-4afc-a206-4a5a1c3ed027;803;Automatic;0;RFDevice #124;47,6547304615858;9,42709272372137;2412;-68;33;77;QPSK;OmniDirectional;8700000;14000;110;91;25;-12;-36;Falsches Üben von Xylophonmusik quält jeden größeren Zwerg.
9290cf2d-2a27-4c60-aca7-d712fde0a1a5;634;Automatic;0;RFDevice #125;47,6422588054047;9,40671267542105;8229;-64;-71;-73;TwinRx;HyperLOG60200;9100000;11000;31;39;-1;66;66;Franz jagt im komplett verwahrlosten Taxi quer durch Bayern.
40ed957a-5dd4-421a-9f16-cc8c55bdbcf7;464;Automatic;0;RFDevice #126;47,6830913568062;9,37352441654906;2684;1;-69;69;SIN;HyperLOG60200;9400000;10000;136;96;4;71;-17;Falsches Üben von Xylophonmusik quält jeden größeren Zwerg.
3a711f95-1a86-46ec-842a-2008b7491cdc;-514;Automatic;0;RFDevice #127;47,6357257901849;9,44353494073165;763;86;39;-46;HackRF;OmniLOG30800;9700000;15000;3;26;4;68;2;The quick brown fox jumps over a lazy dog.
06f88d79-17ad-4bec-a85c-c32cc6836742;741;Automatic;0;RFDevice #128;47,7076852346566;9,42009416805321;6253;-70;-72;-76;FMRadio;HyperLOG60200;9900000;11000;36;81;30;38;-61;Franz jagt im komplett verwahrlosten Taxi quer durch Bayern.
ed746173-2d7d-4100-b428-080279a93cf9;91;Automatic;0;RFDevice #129;47,6307875561896;9,43471100278154;11960;75;-88;9;Unknown;Unknown;10400000;19000;36;82;2;-68;-8;The quick brown fox jumps over a lazy dog.
1e2ca643-a370-4ac9-8cc7-2a30fbcbd919;-289;Automatic;0;RFDevice #130;47,6476879139412;9,41483106976801;513;-2;-11;42;Unknown;Unknown;10300000;10000;126;2;69;-18;-56;Falsches Üben von Xylophonmusik quält jeden größeren Zwerg.
4f18033a-a5a0-4caa-bb2b-0cf8887af052;-572;Automatic;0;RFDevice #131;47,7089501961401;9,42385289923669;5654;-84;-44;-1;Unknown;HyperLOG60200;9100000;15000;78;82;34;-67;-54;The quick brown fox jumps over a lazy dog.
62f9c19f-9ce2-4316-a1f5-8e1e0fbd0c9b;119;Automatic;0;RFDevice #132;47,6779070443363;9,43337873077379;8991;-59;-20;-49;QPSK;Unknown;10000000;11000;26;6;-40;-63;5;The quick brown fox jumps over a lazy dog.
a4ea5d66-6ddc-4d40-b30c-7a4aab476725;-918;Automatic;0;RFDevice #133;47,704216344842;9,4036986730518;4819;33;58;83;FMRadio;HyperLOG60200;10200000;17000;139;99;10;50;-72;Franz jagt im komplett verwahrlosten Taxi quer durch Bayern.
3060611a-e5eb-4119-aae0-bd727cbd388a;-468;Automatic;0;RFDevice #134;47,6818966264744;9,37116469038441;5311;-15;-55;11;SIN;HyperLOG60200;9200000;11000;112;3;-60;-39;49;Vom Ödipuskomplex maßlos gequält, übt Wilfried zyklisches Jodeln.
d79ce0c5-8da6-444a-af92-5a04915c18cd;-680;Automatic;0;RFDevice #135;47,6778634989756;9,39494645327296;2439;-20;-51;71;TwinRx;HyperLOG60200;9500000;12000;29;115;-35;3;38;Vom Ödipuskomplex maßlos gequält, übt Wilfried zyklisches Jodeln.
5d93240f-43b9-4156-a132-15413f7fbc2a;-929;Automatic;0;RFDevice #136;47,7120982570389;9,4542652279132;3727;39;42;-30;QPSK;SimradArgusRadar;9600000;15000;16;101;52;8;-65;Vom Ödipuskomplex maßlos gequält, übt Wilfried zyklisches Jodeln.
c7e18fdc-6569-402f-ac73-4ee4d68a8608;-871;Automatic;0;RFDevice #137;47,7139320594316;9,37286746516693;3756;-82;-30;12;SIN;OmniLOG30800;9300000;18000;73;129;44;-5;-34;Falsches Üben von Xylophonmusik quält jeden größeren Zwerg.
3f0427ce-bb60-4bad-acac-5e8535fc7990;-547;Automatic;0;RFDevice #138;47,6605297700543;9,39604532322398;11403;-29;-54;51;Unknown;HyperLOG60200;9400000;10000;7;51;29;-20;-57;Franz jagt im komplett verwahrlosten Taxi quer durch Bayern.
fe56054e-9fc2-4b7c-9105-8843b4d85e62;-546;Automatic;0;RFDevice #139;47,6279642977641;9,43837868456389;11485;65;14;55;QPSK;HyperLOG60200;8600000;13000;21;131;50;45;61;Falsches Üben von Xylophonmusik quält jeden größeren Zwerg.
f3aa16ae-4a60-42b7-9b68-0e69d228523f;455;Automatic;0;RFDevice #140;47,6817096265406;9,43982460549295;3537;-54;32;-13;FMRadio;HyperLOG60200;8800000;17000;36;89;-67;-47;-11;Franz jagt im komplett verwahrlosten Taxi quer durch Bayern.
8be21d9c-5dea-4744-9b3c-0d32f6a846ca;-13;Automatic;0;RFDevice #141;47,6610567242649;9,39033938722437;1262;86;50;4;FMRadio;OmniDirectional;8800000;17000;74;50;-17;69;66;Falsches Üben von Xylophonmusik quält jeden größeren Zwerg.
d05c6435-f58b-47e3-bb8c-000cfd7d9dbf;-768;Automatic;0;RFDevice #142;47,6529890689772;9,36209839673547;10567;21;-16;55;TwinRx;SimradArgusRadar;10400000;12000;61;73;-12;-29;13;Vom Ödipuskomplex maßlos gequält, übt Wilfried zyklisches Jodeln.
00eb2e44-c188-41ea-bc3e-117a61c0f248;937;Automatic;0;RFDevice #143;47,6852048384182;9,39751633717299;8067;-8;-73;-12;B200Mini;OmniLOG30800;9000000;18000;94;41;-28;-21;-46;Franz jagt im komplett verwahrlosten Taxi quer durch Bayern.
797d93e0-c59b-4495-a0b0-8f84fb0fc0ad;-468;Automatic;0;RFDevice #144;47,6433281211144;9,42504160770651;11103;-51;53;-47;TwinRx;OmniLOG30800;10300000;19000;24;50;71;-69;40;Vom Ödipuskomplex maßlos gequält, übt Wilfried zyklisches Jodeln.
63b0e869-85d3-4283-812a-3bb06f74b1d8;-729;Automatic;0;RFDevice #145;47,6568925240334;9,37891989109258;10955;-10;-49;-42;FMRadio;Unknown;10400000;14000;24;14;-27;-38;-4;The quick brown fox jumps over a lazy dog.
64c06bcb-43ca-430c-ae39-28f36d788b59;916;Automatic;0;RFDevice #146;47,6475479498719;9,44241248964646;5175;-19;7;63;QPSK;HyperLOG60200;9400000;14000;30;16;-66;-44;-68;Falsches Üben von Xylophonmusik quält jeden größeren Zwerg.
202e19bd-1361-4c35-bcaf-558ccac994a5;914;Automatic;0;RFDevice #147;47,6622969766663;9,36688039366212;10213;89;1;32;B200Mini;Unknown;9900000;11000;132;66;46;-34;33;The quick brown fox jumps over a lazy dog.
f9a0e0b8-056e-4e7d-9d30-1fb96310195b;-29;Automatic;0;RFDevice #148;47,6464920225063;9,36485039997342;5698;-79;-40;-45;TwinRx;OmniLOG30800;10000000;15000;83;23;2;57;51;The quick brown fox jumps over a lazy dog.
77a57a29-6d4f-4ae6-ac9b-ce09f05995e6;263;Automatic;0;RFDevice #149;47,6180624760065;9,42465601464221;4620;14;-31;47;IdealSDR;OmniDirectional;8900000;16000;100;101;8;62;4;Franz jagt im komplett verwahrlosten Taxi quer durch Bayern.
ae59dac4-0dab-4370-becd-a56f385095ae;-408;Automatic;0;RFDevice #150;47,6685871446118;9,35775967151955;3497;52;84;86;SIN;Unknown;10200000;11000;104;138;-60;55;-2;The quick brown fox jumps over a lazy dog.
297c97f3-9fe5-4536-bdf1-b3e0a426a9ba;-902;Automatic;0;RFDevice #151;47,6525361700453;9,4326779275327;8723;-32;88;55;QPSK;Unknown;8500000;18000;41;100;7;46;17;Franz jagt im komplett verwahrlosten Taxi quer durch Bayern.
09d771b3-7e23-47be-9faf-ec2569c786ef;-922;Automatic;0;RFDevice #152;47,6555826310785;9,43671052780982;10215;70;-78;-13;Unknown;SimradArgusRadar;10300000;17000;84;32;-4;-64;72;Franz jagt im komplett verwahrlosten Taxi quer durch Bayern.
843abbc0-5854-40ed-8d2c-35860ef49359;-55;Automatic;0;RFDevice #153;47,712672928493;9,41167968686484;1518;-61;-5;57;IdealSDR;HyperLOG60200;9300000;19000;138;58;-8;-44;44;Vom Ödipuskomplex maßlos gequält, übt Wilfried zyklisches Jodeln.
82ef4bd3-8b65-41f5-9b25-891813ac045c;374;Automatic;0;RFDevice #154;47,6648652408799;9,4127051831023;908;42;10;49;Unknown;SimradArgusRadar;9300000;16000;125;71;-53;-37;-53;Falsches Üben von Xylophonmusik quält jeden größeren Zwerg.
c8b76879-e0ed-4b9c-a0e6-578e4eefa03a;-747;Automatic;0;RFDevice #155;47,6695173496696;9,40873639816561;7762;-50;31;-5;HackRF;OmniLOG30800;9300000;17000;10;86;-30;-11;-14;Vom Ödipuskomplex maßlos gequält, übt Wilfried zyklisches Jodeln.
7a214831-d8c8-497d-8ff7-3dd3a7b92a74;508;Automatic;0;RFDevice #156;47,7034572286772;9,41470009081952;10213;11;-36;-25;IdealSDR;HyperLOG60200;9000000;18000;54;46;25;-29;22;The quick brown fox jumps over a lazy dog.
e30c5d59-a8a8-4db9-b359-a65292e4cfaf;999;Automatic;0;RFDevice #157;47,6577309457846;9,35712090404772;10434;-29;42;5;FMRadio;OmniDirectional;9800000;18000;36;36;-17;-6;-13;Falsches Üben von Xylophonmusik quält jeden größeren Zwerg.
d98b57e6-4933-4543-a0db-1e105ae3c360;702;Automatic;0;RFDevice #158;47,6950067124531;9,3714142921454;5983;-60;26;-60;QPSK;HyperLOG60200;9500000;13000;120;0;-14;-35;7;Vom Ödipuskomplex maßlos gequält, übt Wilfried zyklisches Jodeln.
a446c21e-a280-4b63-abc4-ecffa0fa7138;479;Automatic;0;RFDevice #159;47,7102046943775;9,44792500191473;7984;71;-44;6;HackRF;HyperLOG60200;8500000;15000;4;128;45;34;-7;The quick brown fox jumps over a lazy dog.
3368f347-9fc6-4d5b-ba34-eeb720fc2c77;37;Automatic;0;RFDevice #160;47,6217731645657;9,3643249844474;8775;-43;61;57;TwinRx;Unknown;8600000;16000;24;45;26;-60;-74;Vom Ödipuskomplex maßlos gequält, übt Wilfried zyklisches Jodeln.
b308bb03-ce45-4600-a75f-0a3afdeb36d5;392;Automatic;0;RFDevice #161;47,7024803082928;9,40561392859087;10221;-12;81;82;Unknown;HyperLOG60200;10400000;17000;89;117;-70;-16;46;The quick brown fox jumps over a lazy dog.
890b537f-6cc4-49ad-8998-f297347b4b20;-963;Automatic;0;RFDevice #162;47,6664554234197;9,36025852596135;12155;-11;53;-88;TwinRx;OmniLOG30800;10000000;10000;10;81;38;45;48;The quick brown fox jumps over a lazy dog.
73dd9fc7-2cb0-4a45-8145-88229ca0d0bb;844;Automatic;0;RFDevice #163;47,6856136991568;9,44839897383597;1120;-14;64;61;Unknown;SimradArgusRadar;9900000;13000;42;113;72;19;24;Vom Ödipuskomplex maßlos gequält, übt Wilfried zyklisches Jodeln.
cba06420-5b5a-4744-9241-c3f0ad8e73f1;565;Automatic;0;RFDevice #164;47,6743841179054;9,37058826916149;4030;-63;-54;-84;HackRF;OmniDirectional;8800000;10000;59;26;58;24;24;Falsches Üben von Xylophonmusik quält jeden größeren Zwerg.
d42e1fae-e78e-4988-b883-6eddb139bf97;-651;Automatic;0;RFDevice #165;47,6908747619666;9,39910374979648;11185;-23;-73;-69;Unknown;OmniLOG30800;9800000;17000;84;113;-68;-7;43;Franz jagt im komplett verwahrlosten Taxi quer durch Bayern.
2bf443ca-68dc-4a4c-bd82-faee6926c9d9;304;Automatic;0;RFDevice #166;47,6194216874976;9,41830530549057;8993;-59;-33;63;FMRadio;OmniDirectional;8800000;16000;54;135;-2;68;-27;Vom Ödipuskomplex maßlos gequält, übt Wilfried zyklisches Jodeln.
15a0262c-864b-4b80-81cd-80540c2ba988;995;Automatic;0;RFDevice #167;47,6796547192046;9,4172512163462;5409;14;-72;22;IdealSDR;OmniLOG30800;8500000;10000;4;22;-73;43;-44;Falsches Üben von Xylophonmusik quält jeden größeren Zwerg.
2972b7f6-e419-484c-bd3a-3701a878def6;-588;Automatic;0;RFDevice #168;47,6272783972675;9,4213594713787;8158;-62;39;48;FMRadio;SimradArgusRadar;9300000;14000;73;84;43;-16;-13;Falsches Üben von Xylophonmusik quält jeden größeren Zwerg.
0563d3a0-47b9-4de1-87d0-592356b59673;477;Automatic;0;RFDevice #169;47,6351112806161;9,41930239133706;1011;-80;-39;-60;QPSK;HyperLOG60200;10100000;18000;77;43;-57;-44;-47;Falsches Üben von Xylophonmusik quält jeden größeren Zwerg.
d6840c3b-f928-42ca-ba13-c5318c17aa5d;841;Automatic;0;RFDevice #170;47,7161867476136;9,39709125181726;9164;-49;17;67;IdealSDR;HyperLOG60200;10200000;14000;113;42;-6;-30;7;Falsches Üben von Xylophonmusik quält jeden größeren Zwerg.
525467c0-689f-46f4-9495-1668a6beac8b;80;Automatic;0;RFDevice #171;47,6774515833826;9,42865484034316;11007;11;19;-5;TwinRx;OmniDirectional;9400000;13000;137;84;-1;3;40;Falsches Üben von Xylophonmusik quält jeden größeren Zwerg.
97e611db-32a0-4a9b-8795-67c8f7e18f6c;-31;Automatic;0;RFDevice #172;47,7053848697356;9,41818026595866;124;67;12;-51;HackRF;HyperLOG60200;9100000;17000;25;114;21;-34;34;Franz jagt im komplett verwahrlosten Taxi quer durch Bayern.
6c7274f8-9981-4b57-90a4-02c2361aabe0;10;Automatic;0;RFDevice #173;47,6530615811941;9,40863024722923;2185;-27;34;-2;HackRF;Unknown;8900000;16000;106;13;-65;-40;43;Franz jagt im komplett verwahrlosten Taxi quer durch Bayern.
029d9f10-1cd1-4d14-b363-4e47a6dde3d0;880;Automatic;0;RFDevice #174;47,6447653818378;9,4334909548414;5754;-54;47;-30;FMRadio;HyperLOG60200;8700000;10000;48;135;-35;-72;-47;Franz jagt im komplett verwahrlosten Taxi quer durch Bayern.
a383e3db-cc39-495e-8c8b-24dab1ec53f4;379;Automatic;0;RFDevice #175;47,6860171035558;9,36815013040904;10649;87;63;-52;IdealSDR;SimradArgusRadar;10100000;11000;53;70;42;71;-68;The quick brown fox jumps over a lazy dog.
33e8b043-122b-4a1d-9852-990aab3ed780;481;Automatic;0;RFDevice #176;47,7068411687413;9,36686736704372;9849;-6;67;-83;HackRF;SimradArgusRadar;9600000;13000;1;59;-59;21;11;Franz jagt im komplett verwahrlosten Taxi quer durch Bayern.
5e2c0b4a-ef97-4e99-9bfc-b1ac54f059cd;425;Automatic;0;RFDevice #177;47,6180492979783;9,42810939916989;4524;-27;-50;11;B200Mini;HyperLOG60200;9200000;11000;138;136;-8;-60;60;Vom Ödipuskomplex maßlos gequält, übt Wilfried zyklisches Jodeln.
7039a847-b044-420d-98a9-5252a074b71c;171;Automatic;0;RFDevice #178;47,625339478568;9,40572946558244;3499;12;-52;81;TwinRx;SimradArgusRadar;10300000;16000;131;105;-26;71;36;Franz jagt im komplett verwahrlosten Taxi quer durch Bayern.
661d95bd-8bff-4cc7-b160-64725f64f00d;-342;Automatic;0;RFDevice #179;47,6656191333029;9,43242053681833;7607;80;-56;74;IdealSDR;OmniLOG30800;9800000;11000;126;60;72;21;53;The quick brown fox jumps over a lazy dog.
9753ddd4-536a-4165-9611-55d3f7fde7fb;992;Automatic;0;RFDevice #180;47,6994430476789;9,3648150881795;11201;13;36;63;Unknown;OmniLOG30800;9300000;17000;56;125;12;-13;5;Franz jagt im komplett verwahrlosten Taxi quer durch Bayern.
d630cff0-fc7d-4e89-a5bc-cbf52f5d4d91;-367;Automatic;0;RFDevice #181;47,6464429271383;9,41368825319596;6230;-35;-6;26;QPSK;OmniDirectional;10400000;15000;91;30;36;26;29;Vom Ödipuskomplex maßlos gequält, übt Wilfried zyklisches Jodeln.
b1c0dac4-43cb-4d25-a9b4-d5df6aecc2f7;-542;Automatic;0;RFDevice #182;47,6622212245877;9,41343298163626;7289;0;-9;6;FMRadio;OmniLOG30800;9100000;17000;13;85;6;47;9;Vom Ödipuskomplex maßlos gequält, übt Wilfried zyklisches Jodeln.
67035f54-aa1f-4d02-9551-48ee8a614beb;-61;Automatic;0;RFDevice #183;47,6273591628418;9,38450685764143;9874;-60;68;47;TwinRx;HyperLOG60200;8600000;14000;129;133;-29;37;-45;The quick brown fox jumps over a lazy dog.
64582e88-c1b0-4407-bda3-1ae75cfc2a7f;-452;Automatic;0;RFDevice #184;47,7130714609574;9,37191139374219;5756;59;-58;-83;HackRF;Unknown;8800000;17000;108;129;-41;-1;-13;Vom Ödipuskomplex maßlos gequält, übt Wilfried zyklisches Jodeln.
5e333638-33ed-473f-b601-9f51c5609ade;381;Automatic;0;RFDevice #185;47,6482524168894;9,39750073030211;10785;50;-29;10;Unknown;SimradArgusRadar;10300000;17000;103;20;-31;-30;9;Falsches Üben von Xylophonmusik quält jeden größeren Zwerg.
6218479a-8b2c-4985-96fa-3eb70e2e63c0;-728;Automatic;0;RFDevice #186;47,6939554094534;9,37523505320752;9638;-42;70;-70;FMRadio;HyperLOG60200;8600000;17000;18;91;1;45;56;The quick brown fox jumps over a lazy dog.
0fe38180-2f5f-457c-8e35-04b140dbfbec;478;Automatic;0;RFDevice #187;47,6543026699697;9,45467912526755;2837;42;29;6;Unknown;SimradArgusRadar;10400000;15000;37;124;-33;-16;-49;Vom Ödipuskomplex maßlos gequält, übt Wilfried zyklisches Jodeln.
f7d1c7d9-2864-4017-8004-e23d206b7dce;569;Automatic;0;RFDevice #188;47,7099770410258;9,42080863246933;12292;45;-16;-89;TwinRx;OmniDirectional;9400000;12000;93;116;48;18;53;Vom Ödipuskomplex maßlos gequält, übt Wilfried zyklisches Jodeln.
d2a131d5-a0dc-4ce9-869f-e36978798480;80;Automatic;0;RFDevice #189;47,6777254523598;9,42215509080164;11387;38;-29;-55;TwinRx;Unknown;9200000;19000;101;85;-60;-70;58;Falsches Üben von Xylophonmusik quält jeden größeren Zwerg.
3532b4c8-b083-4b28-92dd-71f92db2e3a6;939;Automatic;0;RFDevice #190;47,6583931418865;9,35869398974023;4590;74;-15;62;FMRadio;SimradArgusRadar;9500000;14000;102;116;19;72;13;Franz jagt im komplett verwahrlosten Taxi quer durch Bayern.
b4e28dde-543d-4ba5-91b2-c91e47143b4a;22;Automatic;0;RFDevice #191;47,6442938335438;9,38598729964826;976;86;77;30;B200Mini;SimradArgusRadar;10400000;14000;77;44;58;52;-23;The quick brown fox jumps over a lazy dog.
a6f1e50d-9985-49b2-b83c-4836a1ee97f2;-488;Automatic;0;RFDevice #192;47,6681669212023;9,3901387069302;5076;-53;1;76;B200Mini;OmniDirectional;10100000;11000;121;99;-17;1;-1;Vom Ödipuskomplex maßlos gequält, übt Wilfried zyklisches Jodeln.
080f648f-85b2-4b11-a050-5e50e6501072;594;Automatic;0;RFDevice #193;47,6776575772446;9,42419005942928;3254;88;-40;6;HackRF;OmniDirectional;10000000;19000;34;73;-25;-27;0;The quick brown fox jumps over a lazy dog.
9d4eab59-6a58-41ce-9982-ab0bdddee2ca;-676;Automatic;0;RFDevice #194;47,7042753212864;9,45208539902066;5504;-63;-19;-43;QPSK;SimradArgusRadar;9100000;18000;7;75;7;-19;-65;Franz jagt im komplett verwahrlosten Taxi quer durch Bayern.
ea9f1d09-caa1-4584-9940-aec94b069b14;268;Automatic;0;RFDevice #195;47,6850703763465;9,4514901744648;3105;19;68;-48;IdealSDR;SimradArgusRadar;10200000;14000;93;24;-25;58;-64;Franz jagt im komplett verwahrlosten Taxi quer durch Bayern.
22b6a8f9-0117-4317-a240-4deb5715a329;-468;Automatic;0;RFDevice #196;47,653764936748;9,37457272436884;4364;-62;-42;-43;B200Mini;OmniLOG30800;8600000;11000;102;101;55;-20;47;The quick brown fox jumps over a lazy dog.
140dbb55-c294-4aa8-a96f-796eb5d5760a;620;Automatic;0;RFDevice #197;47,6501273692113;9,39507313663578;4282;-24;-4;-51;B200Mini;SimradArgusRadar;9300000;16000;128;8;43;39;-23;The quick brown fox jumps over a lazy dog.
f9ade3c3-40b4-4464-9438-bc95e9f757ad;441;Automatic;0;RFDevice #198;47,6789302648638;9,42975794080369;6698;66;2;-10;SIN;SimradArgusRadar;9500000;19000;47;1;-36;-2;60;Vom Ödipuskomplex maßlos gequält, übt Wilfried zyklisches Jodeln.
ddab9ae1-3ab8-4ff9-8044-6f6dd167bd64;-858;Automatic;0;RFDevice #199;47,7151929093588;9,39323676830976;8671;-1;3;80;SIN;OmniDirectional;9200000;12000;131;66;-60;7;13;Falsches Üben von Xylophonmusik quält jeden größeren Zwerg.
7c9c7a02-350d-46e9-8019-e02558833a8f;748;Automatic;0;RFDevice #200;47,6645872065625;9,39729949722142;9009;41;69;-44;QPSK;SimradArgusRadar;8600000;15000;128;31;-33;-33;40;Franz jagt im komplett verwahrlosten Taxi quer durch Bayern.
212f97bb-df2d-4479-a40d-d24e0779fdcc;942;Automatic;0;RFDevice #201;47,6833547052376;9,36653561252675;5638;71;30;36;IdealSDR;HyperLOG60200;10100000;14000;128;58;-69;-34;-74;The quick brown fox jumps over a lazy dog.
9bfd6032-c09e-4beb-b649-bfd81b3f4039;555;Automatic;0;RFDevice #202;47,660798896248;9,41181093373156;6404;30;-32;-23;Unknown;OmniDirectional;8900000;15000;33;33;17;14;9;Falsches Üben von Xylophonmusik quält jeden größeren Zwerg.
efe0168e-b37f-4bbd-8cd9-41f8e60f7a43;-432;Automatic;0;RFDevice #203;47,6379648170836;9,41875190574819;2038;86;-41;51;SIN;OmniDirectional;8500000;15000;3;118;73;-47;48;Franz jagt im komplett verwahrlosten Taxi quer durch Bayern.
ae0d828a-3e3f-4c2e-9614-bf739d394a89;-629;Automatic;0;RFDevice #204;47,6849448224452;9,38775587539751;10355;-71;-6;3;IdealSDR;OmniLOG30800;8900000;10000;73;7;32;-29;-48;Vom Ödipuskomplex maßlos gequält, übt Wilfried zyklisches Jodeln.
1121439c-5da5-4d4d-a529-436d93e3b492;762;Automatic;0;RFDevice #205;47,7174016909514;9,42664115574256;5800;-57;52;-7;SIN;SimradArgusRadar;9000000;19000;123;45;-18;44;65;Falsches Üben von Xylophonmusik quält jeden größeren Zwerg.
586ee98d-940c-4be9-93f9-0ea44037f0f4;-518;Automatic;0;RFDevice #206;47,635039097645;9,44992012211319;429;-4;57;-1;IdealSDR;HyperLOG60200;10300000;13000;64;77;66;-37;-45;Vom Ödipuskomplex maßlos gequält, übt Wilfried zyklisches Jodeln.
2928ab50-482b-4766-ae84-1cf99e6a0b95;841;Automatic;0;RFDevice #207;47,6766886174562;9,42282694357781;3450;40;49;9;FMRadio;SimradArgusRadar;9100000;12000;90;12;64;-41;-41;Falsches Üben von Xylophonmusik quält jeden größeren Zwerg.
89b8b75e-88e3-4155-846e-52b187788dc5;-792;Automatic;0;RFDevice #208;47,6219863686572;9,39246815097835;4451;-53;-57;-49;TwinRx;HyperLOG60200;9300000;15000;96;117;-71;42;-65;The quick brown fox jumps over a lazy dog.
07a195b8-09c7-4fef-bb3d-1d1ff8549bae;-371;Automatic;0;RFDevice #209;47,6938925126764;9,41399681705904;3009;-42;40;-39;FMRadio;OmniLOG30800;9900000;17000;129;123;-61;-43;-74;Falsches Üben von Xylophonmusik quält jeden größeren Zwerg.
83ca2d3f-6fcc-4495-99db-546e95aae6ed;822;Automatic;0;RFDevice #210;47,6950213661154;9,35758292907938;3251;47;66;65;B200Mini;HyperLOG60200;9300000;19000;69;105;60;-26;12;Franz jagt im komplett verwahrlosten Taxi quer durch Bayern.
b60061d0-44b1-4958-bb66-07065b585adb;504;Automatic;0;RFDevice #211;47,7174821500042;9,40241967514006;7816;-88;-87;52;Unknown;SimradArgusRadar;9300000;11000;129;12;-52;18;40;Falsches Üben von Xylophonmusik quält jeden größeren Zwerg.
5f451840-9e52-4253-a893-195601925b1f;114;Automatic;0;RFDevice #212;47,6417405940779;9,44755683478056;4737;82;1;-68;SIN;OmniDirectional;8800000;10000;57;114;-38;-34;62;Vom Ödipuskomplex maßlos gequält, übt Wilfried zyklisches Jodeln.
514d49c0-0f32-464c-98c0-d6466712944e;-47;Automatic;0;RFDevice #213;47,6437824279964;9,3945646823565;3684;-48;-66;9;IdealSDR;Unknown;9400000;17000;135;100;-70;-62;-41;Falsches Üben von Xylophonmusik quält jeden größeren Zwerg.
e2ff9654-0ccc-46d6-8a86-ce6715f71302;-694;Automatic;0;RFDevice #214;47,6267738100724;9,38984318654247;7578;3;-48;82;QPSK;OmniLOG30800;10400000;15000;124;107;-31;5;-63;The quick brown fox jumps over a lazy dog.
c9031704-7abc-4dc9-9414-ed48d929cc99;-397;Automatic;0;RFDevice #215;47,6843406778214;9,36756984023931;3612;-84;-87;-22;SIN;OmniLOG30800;8800000;16000;56;67;39;71;22;Vom Ödipuskomplex maßlos gequält, übt Wilfried zyklisches Jodeln.
16e74805-4907-4708-be9c-1474fc870bfe;-668;Automatic;0;RFDevice #216;47,6574681819909;9,37852800331212;2819;-87;81;40;IdealSDR;Unknown;9400000;14000;39;117;63;-20;48;Franz jagt im komplett verwahrlosten Taxi quer durch Bayern.
e30c52dd-a3ba-49e7-a558-c3e87fb682c6;-878;Automatic;0;RFDevice #217;47,6741323415527;9,36354862677766;7675;86;25;73;IdealSDR;OmniDirectional;10200000;17000;19;65;60;-25;-61;Vom Ödipuskomplex maßlos gequält, übt Wilfried zyklisches Jodeln.
52d2a454-655c-4de2-aa19-1f17f71395e0;570;Automatic;0;RFDevice #218;47,6593301794295;9,44275256064119;10012;-88;79;65;HackRF;Unknown;9200000;15000;43;13;13;-28;-68;Vom Ödipuskomplex maßlos gequält, übt Wilfried zyklisches Jodeln.
128fa94c-61fe-4bfc-9819-5febba978474;-267;Automatic;0;RFDevice #219;47,7169776751731;9,36878298498369;2599;-21;60;60;FMRadio;OmniDirectional;9100000;11000;14;6;-69;40;57;Falsches Üben von Xylophonmusik quält jeden größeren Zwerg.
62c219a8-8c75-4c29-9bba-da29b374ce21;-236;Automatic;0;RFDevice #220;47,7154779396783;9,41438926596135;7169;17;65;23;IdealSDR;SimradArgusRadar;8700000;15000;16;6;33;-51;45;Franz jagt im komplett verwahrlosten Taxi quer durch Bayern.
c2064dd1-b7f0-477e-b25c-362e36b50d0b;-132;Automatic;0;RFDevice #221;47,6894793094777;9,37612181912197;7948;-75;36;-32;FMRadio;HyperLOG60200;10300000;12000;24;126;23;-46;-13;Vom Ödipuskomplex maßlos gequält, übt Wilfried zyklisches Jodeln.
0497cccc-96d5-43c5-b5ef-8ada797a7b1d;613;Automatic;0;RFDevice #222;47,6579820304906;9,39656612912235;6026;31;-48;10;SIN;OmniDirectional;9500000;11000;105;15;-7;53;66;Vom Ödipuskomplex maßlos gequält, übt Wilfried zyklisches Jodeln.
5fef47e1-b645-4809-a8fa-cafb94f9bf39;-281;Automatic;0;RFDevice #223;47,6232494343405;9,37507844982641;4892;-12;-35;11;HackRF;SimradArgusRadar;8500000;13000;38;28;73;26;-40;Vom Ödipuskomplex maßlos gequält, übt Wilfried zyklisches Jodeln.
b499ad1d-cf79-4b0d-9c16-0139967d28d5;-503;Automatic;0;RFDevice #224;47,6476185164628;9,44435062021421;3720;-7;37;-4;SIN;OmniDirectional;9400000;16000;74;34;-66;-7;61;The quick brown fox jumps over a lazy dog.
c39616f4-b3d6-4711-9c35-43c2f5458d2e;174;Automatic;0;RFDevice #225;47,6564145192992;9,3978844289166;9885;68;-51;-37;SIN;Unknown;9100000;17000;15;33;29;-15;67;Vom Ödipuskomplex maßlos gequält, übt Wilfried zyklisches Jodeln.
1a607763-5c55-4aa4-b359-db0ca74fd71d;-760;Automatic;0;RFDevice #226;47,6898603531011;9,3830811902077;11821;-71;-75;-48;Unknown;OmniDirectional;10100000;14000;133;35;21;-14;-72;The quick brown fox jumps over a lazy dog.
1edeecb0-2ed7-4608-a9df-db23b4a95b55;-499;Automatic;0;RFDevice #227;47,6409758553558;9,36281118467783;4344;-76;-72;56;Unknown;HyperLOG60200;9800000;10000;23;0;43;21;-53;Falsches Üben von Xylophonmusik quält jeden größeren Zwerg.
afcc2e94-7de8-4d2c-ba16-965bd2a30c0a;557;Automatic;0;RFDevice #228;47,6350690588045;9,42697394831167;5882;69;33;82;FMRadio;HyperLOG60200;8500000;11000;89;79;30;65;11;The quick brown fox jumps over a lazy dog.
5556d3d1-32c9-4c0c-bf5c-6fc564f3baf4;162;Automatic;0;RFDevice #229;47,6711493881277;9,36338097625771;850;17;-1;-1;B200Mini;HyperLOG60200;10200000;11000;40;40;-39;5;13;Falsches Üben von Xylophonmusik quält jeden größeren Zwerg.
406285a6-8add-418a-9c44-95124325eca4;-774;Automatic;0;RFDevice #230;47,6927456434775;9,42479577810463;3415;66;-52;-60;QPSK;HyperLOG60200;9000000;13000;16;55;9;-72;31;The quick brown fox jumps over a lazy dog.
f959c123-aec5-405d-b2a5-38bc21575ae1;622;Automatic;0;RFDevice #231;47,6286430576942;9,42987093479568;4857;-15;-71;81;B200Mini;Unknown;8500000;10000;54;62;-5;17;-62;Franz jagt im komplett verwahrlosten Taxi quer durch Bayern.
06ee79e7-139f-412e-85ef-a11e944ce4e5;363;Automatic;0;RFDevice #232;47,7096126538738;9,42365449122991;2085;-5;4;-62;TwinRx;SimradArgusRadar;9300000;10000;59;130;41;-21;-26;Falsches Üben von Xylophonmusik quält jeden größeren Zwerg.
8e5b75d0-7afa-4c91-9e31-7ba154377e8a;-976;Automatic;0;RFDevice #233;47,634474712253;9,45398666334726;4762;9;-4;77;HackRF;Unknown;9800000;12000;128;104;-70;-56;70;Franz jagt im komplett verwahrlosten Taxi quer durch Bayern.
87dcfae0-2912-47d0-9960-810fbb043660;-148;Automatic;0;RFDevice #234;47,6316300545726;9,39099671325429;9635;16;-65;45;IdealSDR;OmniDirectional;10300000;19000;36;45;-64;25;-73;Falsches Üben von Xylophonmusik quält jeden größeren Zwerg.
cc08637c-9ce7-4edb-9893-adceb68ffe8e;734;Automatic;0;RFDevice #235;47,6914639531587;9,40265669214865;5724;-84;54;-30;IdealSDR;OmniLOG30800;10200000;14000;76;69;59;-67;-32;Falsches Üben von Xylophonmusik quält jeden größeren Zwerg.
b9b87d70-e90d-4b53-a023-fd68cb26ccaf;-249;Automatic;0;RFDevice #236;47,6851116972433;9,45436504685725;11852;-44;-87;-38;Unknown;Unknown;9100000;16000;111;57;-58;43;67;Vom Ödipuskomplex maßlos gequält, übt Wilfried zyklisches Jodeln.
4ef31cf0-1fe1-42fe-9590-a66704e67fe4;331;Automatic;0;RFDevice #237;47,6282590507188;9,36809223697634;8503;36;51;72;FMRadio;HyperLOG60200;8900000;15000;35;33;20;-45;3;Falsches Üben von Xylophonmusik quält jeden größeren Zwerg.
caecd0b4-e0f9-4c6f-aaf7-566da913f02c;-7;Automatic;0;RFDevice #238;47,6367667553877;9,41431578181621;9041;7;80;4;QPSK;OmniDirectional;9000000;14000;104;97;17;14;12;Franz jagt im komplett verwahrlosten Taxi quer durch Bayern.
1a9d78ae-6d92-4e17-8a50-fdb665b2de97;184;Automatic;0;RFDevice #239;47,6378048825712;9,39514687065476;5394;-74;15;57;QPSK;OmniLOG30800;8600000;16000;50;53;-7;-46;-68;Vom Ödipuskomplex maßlos gequält, übt Wilfried zyklisches Jodeln.
4bf08d9d-b7ff-40a2-bdba-5c88fc1b2137;241;Automatic;0;RFDevice #240;47,7018511104398;9,41002363031933;11734;-36;-81;-89;Unknown;Unknown;9900000;12000;25;23;63;-12;58;Falsches Üben von Xylophonmusik quält jeden größeren Zwerg.
4cf7c45a-dff4-4761-aac0-bbe2d2d457bb;-175;Automatic;0;RFDevice #241;47,6730467898405;9,45466674256557;5168;-31;14;75;HackRF;OmniDirectional;9800000;11000;100;68;68;-4;61;Falsches Üben von Xylophonmusik quält jeden größeren Zwerg.
cb7feb5e-0f78-4abe-aa1a-0a38fdc8f282;30;Automatic;0;RFDevice #242;47,7043140923617;9,38801593281438;869;-19;11;-18;HackRF;HyperLOG60200;8600000;13000;11;91;19;16;2;The quick brown fox jumps over a lazy dog.
5c9fc313-900a-4e2d-b5d7-f6122eea87d7;396;Automatic;0;RFDevice #243;47,6598603280066;9,44714235041359;8934;5;-87;2;HackRF;Unknown;10200000;15000;53;13;-18;-43;27;The quick brown fox jumps over a lazy dog.
f5f9b2b7-ff86-4c81-9a1e-eb6693abb641;498;Automatic;0;RFDevice #244;47,6645225227637;9,44928330005781;9430;-34;-11;-66;IdealSDR;HyperLOG60200;9100000;19000;129;132;-43;26;-22;Vom Ödipuskomplex maßlos gequält, übt Wilfried zyklisches Jodeln.
142418a5-7d3f-4d84-a453-82be66344e77;796;Automatic;0;RFDevice #245;47,6501092208775;9,40859063037341;10723;-56;80;-64;B200Mini;OmniLOG30800;9600000;16000;123;25;39;-68;19;The quick brown fox jumps over a lazy dog.
af3cf7da-6363-42b2-8aa0-442807adc0ec;-422;Automatic;0;RFDevice #246;47,6807953892644;9,37203940226062;10908;59;-86;-3;HackRF;SimradArgusRadar;8600000;16000;55;112;42;11;-16;Franz jagt im komplett verwahrlosten Taxi quer durch Bayern.
a8bcc586-308d-4514-b7ee-9de1b869f0b9;-981;Automatic;0;RFDevice #247;47,6577873876812;9,40460190963882;10053;-74;15;-16;Unknown;SimradArgusRadar;9900000;10000;22;94;-65;19;20;Vom Ödipuskomplex maßlos gequält, übt Wilfried zyklisches Jodeln.
de01b59a-daee-42d5-b507-6cbf69e2eccf;367;Automatic;0;RFDevice #248;47,6612876056273;9,43557790784627;7218;13;-23;-88;SIN;Unknown;8600000;11000;98;22;17;-49;-62;Vom Ödipuskomplex maßlos gequält, übt Wilfried zyklisches Jodeln.
a9586c41-63b6-4fff-8a68-aa9b4a8ab81b;-529;Automatic;0;RFDevice #249;47,6562263593099;9,41507760673268;7847;63;-64;83;HackRF;Unknown;9100000;12000;58;134;30;22;55;Falsches Üben von Xylophonmusik quält jeden größeren Zwerg.
9d04114d-8b05-489b-9b0f-53a70e7076ff;209;Automatic;0;RFDevice #250;47,7112332058882;9,42482740672732;7115;-47;86;-79;QPSK;Unknown;9600000;12000;10;135;-15;-52;-8;Franz jagt im komplett verwahrlosten Taxi quer durch Bayern.
0bfe8fd4-4b68-4fde-8c0b-0c40039d7e97;889;Automatic;0;RFDevice #251;47,6334051045737;9,44811863877925;7610;-26;43;-35;B200Mini;OmniLOG30800;10200000;10000;84;93;-3;17;-20;The quick brown fox jumps over a lazy dog.
a680ccfe-2cf8-403e-a835-17da9c20b36c;701;Automatic;0;RFDevice #252;47,6600606312781;9,38984009704281;8354;56;-44;-15;SIN;OmniLOG30800;8800000;19000;110;103;63;-34;61;The quick brown fox jumps over a lazy dog.
7891c456-071e-437f-86ce-c0054b11ddc5;-966;Automatic;0;RFDevice #253;47,6307521278174;9,41451095692294;10304;-10;-84;31;HackRF;SimradArgusRadar;9900000;12000;130;69;14;24;42;Falsches Üben von Xylophonmusik quält jeden größeren Zwerg.
39797312-0fb8-4306-9e5c-7bf592d675a6;-253;Automatic;0;RFDevice #254;47,6989271342043;9,38243805869798;2711;-84;12;-39;QPSK;OmniLOG30800;10000000;14000;131;113;-22;-58;-59;Franz jagt im komplett verwahrlosten Taxi quer durch Bayern.
6d9bef53-9b9b-4276-a60c-5f949aa8d1af;961;Automatic;0;RFDevice #255;47,6845324165341;9,43116336589469;407;46;-64;-6;SIN;HyperLOG60200;9100000;17000;19;92;5;-15;-16;Franz jagt im komplett verwahrlosten Taxi quer durch Bayern.
dfaf1ab0-611e-426c-8c7b-07bbaf00299a;-443;Automatic;0;RFDevice #256;47,6734357791821;9,4152448111724;2757;10;-2;-6;TwinRx;HyperLOG60200;10200000;19000;22;95;45;51;-68;Falsches Üben von Xylophonmusik quält jeden größeren Zwerg.
53b8d12f-339d-4107-9f54-6fa2d8bc5329;-780;Automatic;0;RFDevice #257;47,6790043044963;9,44188188835336;6971;68;82;-70;B200Mini;SimradArgusRadar;8800000;16000;80;3;48;-69;54;The quick brown fox jumps over a lazy dog.
148ee1ba-957f-43a5-bb07-a326cf167918;-719;Automatic;0;RFDevice #258;47,6314800981105;9,38818797896733;6845;21;-1;2;SIN;OmniDirectional;9600000;11000;40;47;-32;25;-66;The quick brown fox jumps over a lazy dog.
84df4625-9bb5-4be1-9c8f-4f0f34b6841f;-229;Automatic;0;RFDevice #259;47,6410775012753;9,43559303471349;9166;-13;78;-8;FMRadio;Unknown;9000000;17000;62;92;59;-65;-18;Vom Ödipuskomplex maßlos gequält, übt Wilfried zyklisches Jodeln.
1bb70b5b-b8a3-468f-9f53-c9b736ac7639;743;Automatic;0;RFDevice #260;47,6949767512704;9,40947489484856;7139;-11;48;21;HackRF;OmniLOG30800;10400000;15000;51;93;-3;-17;15;The quick brown fox jumps over a lazy dog.
a4f6bb6f-e27b-4e8b-a18a-c2214de79c9a;-739;Automatic;0;RFDevice #261;47,6693103593856;9,36030029193714;3664;-10;73;83;SIN;HyperLOG60200;10200000;14000;22;83;-47;-39;51;The quick brown fox jumps over a lazy dog.
79bd9d14-059b-427b-94e3-99e4d9b061f1;-79;Automatic;0;RFDevice #262;47,6327994970517;9,38727782379445;4616;-78;-37;39;HackRF;OmniDirectional;8500000;18000;113;63;-37;48;50;Vom Ödipuskomplex maßlos gequält, übt Wilfried zyklisches Jodeln.
97ea77af-157d-47ba-9a57-481b0b5fe9df;267;Automatic;0;RFDevice #263;47,620718405358;9,40367312745564;11438;-22;25;77;TwinRx;Unknown;10300000;17000;66;81;-53;-8;-11;The quick brown fox jumps over a lazy dog.
8e5af21c-9de7-4c1c-9420-0620e1b5db58;319;Automatic;0;RFDevice #264;47,6179419923184;9,39925137832462;7581;-65;-29;37;QPSK;Unknown;8600000;12000;102;91;-43;-43;2;Falsches Üben von Xylophonmusik quält jeden größeren Zwerg.
